% 1-Bed,% 2-Bed,% 3-Bed,% 4-Bed,% Studios,Amenities,Avg Effective/SF,Avg Effective/Unit,Avg Unit SF,Building Class,Ceiling Ht,City,Closest Transit Stop Dist (mi),Features,Four Bedroom Avg SF,Land Area (AC),Latitude,LEED Certified,Longitude,Number Of Elevators,Number Of Stories,Number Of Units,One Bedroom Avg SF,Parking Ratio,Rent/SF/Yr,RBA,Studio Avg SF,Style,Submarket Name,Three Bedroom Avg SF,Two Bedroom Avg SF,Year Built,Year Renovated,Zip,Zoning
81.13,16.98,1.89,,,"24 Hour Access, Air Conditioning, Controlled Access, Laundry Facilities, Package Service, Trash Pickup - Door to Door, Storage Space, Bicycle Storage, Elevator, Freezer, Instant Hot Water, Lawn, Loft Layout, Patio, Smoke Free, Green Community",2.83,1878,666,A,,Portland,9.54,"24 Hour Access, Air Conditioning, Controlled Access, Laundry Facilities, Package Service, Trash Pickup - Door to Door, Storage Space, Bicycle Storage, Elevator, Freezer, Instant Hot Water, Lawn, Loft Layout, Patio, Smoke Free, Green Community",,0.43,45.5118064,LEED Interiors - Gold,-122.6448980,0,4,51,590,1.40,$36.96,38427,,Mid-Rise,Hosford-Abernethy,1946,896,2009,,97214-4988,C2 R5
65.73,21.35,,,12.92,"24 Hour Access, Air Conditioning, Business Center, Controlled Access, Courtyard, Fitness Center, Laundry Facilities, Picnic Area, Pool, Property Manager on Site, Spa, Tenant Controlled HVAC, Tennis Court, Disposal Chutes, Grill, Package Service, Renters Insurance Program, Walking/Biking Trails, Yard, Roof Terrace, Storage Space, Community-Wide WiFi, Conference Rooms, Elevator, Hearing Impaired Accessible, Lounge, Maintenance on site, Multi Use Room, Online Services, Pet Care, Sundeck, Vision Impaired Accessible, Grill, Deck, Freezer, Linen Closet, Wheelchair Accessible (Rooms), Window Coverings, Public Transportation, Key Fob Entry",2.31,1655,716,B,,Portland,0.11,"24 Hour Access, Air Conditioning, Business Center, Controlled Access, Courtyard, Fitness Center, Laundry Facilities, Picnic Area, Pool, Property Manager on Site, Spa, Tenant Controlled HVAC, Tennis Court, Disposal Chutes, Grill, Package Service, Renters Insurance Program, Walking/Biking Trails, Yard, Roof Terrace, Storage Space, Community-Wide WiFi, Conference Rooms, Elevator, Hearing Impaired Accessible, Lounge, Maintenance on site, Multi Use Room, Online Services, Pet Care, Sundeck, Vision Impaired Accessible, Grill, Deck, Freezer, Linen Closet, Wheelchair Accessible (Rooms), Window Coverings, Public Transportation, Key Fob Entry",,0.92,45.5276270,,-122.6804660,4,6,178,668,0.62,$24.00,194044,543,Mid-Rise,Pearl,,967,2004,,97209,"EX, Portland"
25.00,66.67,8.33,,,"Clubhouse, Fitness Center, Picnic Area, Playground, Tanning Salon, Gameroom, Grill, Recycling, Grill, Built-In Bookshelves, Deck, Patio, Wheelchair Accessible (Rooms)",1.78,1637,917,C,,Vancouver,9.95,"Clubhouse, Fitness Center, Picnic Area, Playground, Tanning Salon, Gameroom, Grill, Recycling, Grill, Built-In Bookshelves, Deck, Patio, Wheelchair Accessible (Rooms)",,4.52,45.6208140,,-122.4997600,0,2,96,697,1.00,Not Disclosed,115672,,Garden,Bennington,1235,960,2000,,98684,R-
,100.00,,,,"Air Conditioning, Laundry Facilities, Wheelchair Accessible (Rooms)",1.34,1172,875,B,,Mcminnville,,"Air Conditioning, Laundry Facilities, Wheelchair Accessible (Rooms)",,3.08,45.2077700,,-123.2427019,0,2,68,,1.86,Not Disclosed,59500,,Garden,Yamhill County,,875,2009,,97128,R
,100.00,,,,"Air Conditioning, Wheelchair Accessible (Rooms)",1.29,1236,960,B,,Camas,14.17,"Air Conditioning, Wheelchair Accessible (Rooms)",,3.05,45.5891260,,-122.3796812,0,3,42,,1.66,Not Disclosed,64023,,Garden,Outlying Vancouver,,960,2000,,98607,MF
41.03,58.97,,,,"Air Conditioning, Controlled Access, Gated, Storage Space, Elevator, Deck, Garden, Patio, Wheelchair Accessible (Rooms)",1.81,1845,1017,B,,Gresham,0.53,"Air Conditioning, Controlled Access, Gated, Storage Space, Elevator, Deck, Garden, Patio, Wheelchair Accessible (Rooms)",,0.61,45.4995222,,-122.4333037,1,4,39,770,1.20,Not Disclosed,47356,,Mid-Rise,Downtown Gresham,,1191,2009,,97030,DCC
37.78,27.27,6.82,,28.13,"Air Conditioning, Business Center, Clubhouse, Courtyard, Fitness Center, Picnic Area, Property Manager on Site, Gated, Dry Cleaning Service, Grill, On-Site Retail, Putting Greens, Recycling, Walking/Biking Trails, Elevator, Wheelchair Accessible (Rooms)",2.69,2133,793,A,,Portland,0.09,"Air Conditioning, Business Center, Clubhouse, Courtyard, Fitness Center, Picnic Area, Property Manager on Site, Gated, Dry Cleaning Service, Grill, On-Site Retail, Putting Greens, Recycling, Walking/Biking Trails, Elevator, Wheelchair Accessible (Rooms)",,1.0577,45.5113351,LEED Interiors - Gold,-122.6798515,3,16,352,716,0.76,Not Disclosed,401594,603,Hi-Rise,Waterfront,1257,982,2009,,97201,C1Z
,100.00,,,,"Air Conditioning, Wheelchair Accessible (Rooms)",,,768,C,,Vancouver,12.5,"Air Conditioning, Wheelchair Accessible (Rooms)",,0.5515,45.6383820,,-122.6339080,0,1,24,,2.00,Not Disclosed,18432,,Low-Rise,Fourth Plain Village,,768,2003,,98661-5165,"R12, Vancouver"
10.22,10.95,,,78.83,"Air Conditioning, Controlled Access, Clubhouse, Courtyard, Fitness Center, Picnic Area, Pool, Gated, Grill, On-Site Retail, Lounge, Wheelchair Accessible (Rooms)",2.50,2918,1186,B,,Vancouver,11.51,"Air Conditioning, Controlled Access, Clubhouse, Courtyard, Fitness Center, Picnic Area, Pool, Gated, Grill, On-Site Retail, Lounge, Wheelchair Accessible (Rooms)",,,45.6276520,,-122.6751060,0,4,136,916,0.72,Not Disclosed,164724,,Mid-Rise,Downtown Vancouver,,1422,2001,,98660,
38.17,48.09,,,13.74,"Air Conditioning, Courtyard, Fitness Center, Picnic Area, Property Manager on Site, Grill, Wheelchair Accessible (Rooms)",2.74,2250,819,B,,Portland,0.06,"Air Conditioning, Courtyard, Fitness Center, Picnic Area, Property Manager on Site, Grill, Wheelchair Accessible (Rooms)",,0.98,45.5297279,,-122.6825893,3,4,131,690,1.19,Not Disclosed,140282,495,Mid-Rise,Pearl,,1016,2000,,97209-3245,EX
62.81,28.93,,,8.26,"Air Conditioning, Business Center, Picnic Area, Breakfast/Coffee Concierge, Grill, On-Site Retail, Elevator, Wheelchair Accessible (Rooms)",2.65,2500,944,A,,Portland,0.11,"Air Conditioning, Business Center, Picnic Area, Breakfast/Coffee Concierge, Grill, On-Site Retail, Elevator, Wheelchair Accessible (Rooms)",,0.92,45.5240629,LEED Interiors - Gold,-122.6837058,3,16,242,862,2.00,Not Disclosed,285000,685,Hi-Rise,Pearl,,1200,2005,,97209,"EXd, Portland"
40.24,40.24,,,19.51,"24 Hour Access, Air Conditioning, Controlled Access, Fitness Center, Property Manager on Site, Tenant Controlled HVAC, Gated, On-Site Retail, Package Service, Walking/Biking Trails, Storage Space, Elevator, Online Services, Pet Washing Station, Freezer, Patio, Vinyl Flooring, Wheelchair Accessible (Rooms), Window Coverings",1.69,1373,811,A,,Gresham,0.29,"24 Hour Access, Air Conditioning, Controlled Access, Fitness Center, Property Manager on Site, Tenant Controlled HVAC, Gated, On-Site Retail, Package Service, Walking/Biking Trails, Storage Space, Elevator, Online Services, Pet Washing Station, Freezer, Patio, Vinyl Flooring, Wheelchair Accessible (Rooms), Window Coverings",,1.48,45.5069615,,-122.4408586,0,5,82,747,0.86,Not Disclosed,116736,455,Mid-Rise,Gresham-Northwest,,1048,2006,,97030,TDH-C
29.30,25.64,12.09,,32.97,"24 Hour Access, Air Conditioning, Business Center, Controlled Access, Clubhouse, Fitness Center, Corporate Suites, Disposal Chutes, Dry Cleaning Service, Guest Apartment, Media Center/Movie Theatre, Package Service, Planned Social Activities, Recycling, Storage Space, Bicycle Storage, Car Charging Station, Composting, Conference Rooms, Elevator, Lounge, On-Site ATM, Smoke Free",2.80,2858,1020,A,,Portland,0.12,"24 Hour Access, Air Conditioning, Business Center, Controlled Access, Clubhouse, Fitness Center, Corporate Suites, Disposal Chutes, Dry Cleaning Service, Guest Apartment, Media Center/Movie Theatre, Package Service, Planned Social Activities, Recycling, Storage Space, Bicycle Storage, Car Charging Station, Composting, Conference Rooms, Elevator, Lounge, On-Site ATM, Smoke Free",,0.7,45.5223181,LEED Interiors - Platinum,-122.6838113,5,22,273,794,0.58,Not Disclosed,550000,610,Hi-Rise,Arts District,1852,1415,2009,,97205-2361,RX
36.36,40.91,22.73,,,"Air Conditioning, Business Center, Controlled Access, Clubhouse, Fitness Center, Playground, Spa, Corporate Suites, Gated, Gameroom, Online Services, Patio, Wheelchair Accessible (Rooms), Window Coverings",2.09,2015,964,B,,Gresham,0.46,"Air Conditioning, Business Center, Controlled Access, Clubhouse, Fitness Center, Playground, Spa, Corporate Suites, Gated, Gameroom, Online Services, Patio, Wheelchair Accessible (Rooms), Window Coverings",,8.1711,45.5076333,,-122.4432347,1,3,264,672,1.02,Not Disclosed,267762,,Garden,Gresham-Northwest,1293,1042,2003,2017,97030,MDR-C
15.00,85.00,,,,"Air Conditioning, Clubhouse, Fitness Center, Wheelchair Accessible (Rooms)",1.33,1164,878,A,,Battle Ground,18.64,"Air Conditioning, Clubhouse, Fitness Center, Wheelchair Accessible (Rooms)",,4.99,45.7776773,,-122.5541988,0,2,80,747,1.50,Not Disclosed,70232,,Garden,Outlying Clark  County,,901,2009,,98604,C1
96.72,,,,3.28,"Air Conditioning, Business Center, Courtyard, Fitness Center, Laundry Facilities, Property Manager on Site, Tennis Court, Breakfast/Coffee Concierge, Recycling, Walking/Biking Trails, Bicycle Storage, Elevator, Smoke Free, Wheelchair Accessible (Rooms)",1.84,1229,668,A,,Portland,0.62,"Air Conditioning, Business Center, Courtyard, Fitness Center, Laundry Facilities, Property Manager on Site, Tennis Court, Breakfast/Coffee Concierge, Recycling, Walking/Biking Trails, Bicycle Storage, Elevator, Smoke Free, Wheelchair Accessible (Rooms)",,0.83,45.5250267,,-122.6498543,2,5,122,674,1.14,Not Disclosed,87535,535,Mid-Rise,Kerns,,,2000,,97232,EX
27.89,50.34,21.77,,,"Air Conditioning, Business Center, Clubhouse, Fitness Center, Laundry Facilities, Picnic Area, Property Manager on Site, Tennis Court, Grill, Package Service, Wi-Fi, Storage Space, Maintenance on site, Dining Room, Window Coverings",1.82,2068,1133,A,,Vancouver,9.24,"Air Conditioning, Business Center, Clubhouse, Fitness Center, Laundry Facilities, Picnic Area, Property Manager on Site, Tennis Court, Grill, Package Service, Wi-Fi, Storage Space, Maintenance on site, Dining Room, Window Coverings",,6.75,45.6383474,,-122.5951629,0,2,147,928,1.58,Not Disclosed,165371,,Garden,Ogden,1372,1144,2009,2015,98661,"R-22, Vancouver"
37.05,60.07,2.88,,,"Air Conditioning, Business Center, Clubhouse, Fitness Center, Playground, Pool, Property Manager on Site, Spa, Gated, Planned Social Activities, Smoke Free, Wheelchair Accessible (Rooms)",1.68,1781,1061,A,,Vancouver,7.84,"Air Conditioning, Business Center, Clubhouse, Fitness Center, Playground, Pool, Property Manager on Site, Spa, Gated, Planned Social Activities, Smoke Free, Wheelchair Accessible (Rooms)",,17.26,45.6363029,,-122.5512967,0,3,556,780,,Not Disclosed,23652,,Garden,Landover-Sharmel,1723,1203,2008,,98684-4886,MD
,10.00,90.00,,,"Air Conditioning, Yard, Patio, Vinyl Flooring",1.47,1911,1303,B,,Gresham,15.75,"Air Conditioning, Yard, Patio, Vinyl Flooring",,0.0468,45.4840050,,-122.3741490,0,2,30,,,Not Disclosed,30000,,Garden,Kelly Creek,1287,1450,2008,,97080-3100,TR
46.60,3.88,,,49.51,"Air Conditioning, Business Center, Courtyard, Property Manager on Site, Gated, On-Site Retail, Pet Play Area, Walking/Biking Trails, Elevator, Loft Layout, Patio, Wheelchair Accessible (Rooms)",2.54,1805,711,B,,Portland,0.26,"Air Conditioning, Business Center, Courtyard, Property Manager on Site, Gated, On-Site Retail, Pet Play Area, Walking/Biking Trails, Elevator, Loft Layout, Patio, Wheelchair Accessible (Rooms)",,0.4591,45.5267449,,-122.6900815,2,6,103,763,0.66,Not Disclosed,94727,638,Mid-Rise,Uptown Portland,,1020,2009,,97209-2088,EX
20.78,54.55,24.68,,,"24 Hour Access, Air Conditioning, Clubhouse, Fitness Center, Pool, Sauna, Spa, Gated, Tanning Salon, Basketball Court, Media Center/Movie Theatre, Wi-Fi, Grill, Freezer, Pantry, Patio, Wheelchair Accessible (Rooms)",1.15,1274,1108,A,,Camas,10.13,"24 Hour Access, Air Conditioning, Clubhouse, Fitness Center, Pool, Sauna, Spa, Gated, Tanning Salon, Basketball Court, Media Center/Movie Theatre, Wi-Fi, Grill, Freezer, Pantry, Patio, Wheelchair Accessible (Rooms)",,6.42,45.6077682,,-122.4734600,0,3,154,864,0.94,Not Disclosed,169643,,Garden,Fisher's Village,1399,1070,2009,,98607-8678,MD
32.81,64.06,3.13,,,"Air Conditioning, Clubhouse, Fitness Center, Picnic Area, Grill, Pet Play Area, Smoke Free, Wheelchair Accessible (Rooms)",1.44,1369,948,A,,Hillsboro,0.83,"Air Conditioning, Clubhouse, Fitness Center, Picnic Area, Grill, Pet Play Area, Smoke Free, Wheelchair Accessible (Rooms)",,2.21,45.5211661,,-122.9567765,0,3,64,751,1.95,Not Disclosed,65000,,Garden,Downtown Hillsboro,1267,1034,2009,,97124,MU-N
100.00,,,,,,,,,B,,Portland,5.57,,,1.03,45.5693365,,-122.6384631,0,3,100,,,Not Disclosed,52611,,Low-Rise,Concordia,,,2009,,97211-6054,IR
71.74,6.52,,,21.74,"Air Conditioning, Laundry Facilities, Wheelchair Accessible (Rooms)",1.87,1109,596,C,,Portland,7.46,"Air Conditioning, Laundry Facilities, Wheelchair Accessible (Rooms)",,0.0884,45.5111792,,-122.6223994,0,3,45,630,,Not Disclosed,40968,420,Low-Rise,Richmond,,780,2003,,97214,R5
69.81,18.87,,,11.32,"Air Conditioning, Courtyard, Grill, On-Site Retail, Recycling, Elevator, Grill, Patio, Wheelchair Accessible (Rooms)",2.45,1968,803,B,,Portland,0.39,"Air Conditioning, Courtyard, Grill, On-Site Retail, Recycling, Elevator, Grill, Patio, Wheelchair Accessible (Rooms)",,1.28,45.5370456,,-122.6184700,1,5,53,712,2.51,Not Disclosed,89086,617,Mid-Rise,Hollywood,,1254,2009,,97213,CSd
9.46,60.14,12.16,0.027000000000000003,15.54,"Air Conditioning, Clubhouse, Fitness Center, Laundry Facilities, Playground, Property Manager on Site, Basketball Court, Package Service, Storage Space, Health Club Discount, Maintenance on site, Sundeck, Dining Room, Loft Layout, Vinyl Flooring, Window Coverings",1.69,1402,826,A,,Vancouver,10.04,"Air Conditioning, Clubhouse, Fitness Center, Laundry Facilities, Playground, Property Manager on Site, Basketball Court, Package Service, Storage Space, Health Club Discount, Maintenance on site, Sundeck, Dining Room, Loft Layout, Vinyl Flooring, Window Coverings",1302,18.33,45.6594800,,-122.5560540,0,3,296,656,1.95,Not Disclosed,246884,467,Garden,North Image,1086,873,2000,,98682-1289,"CC, Vancouver"
65.85,14.63,19.51,,,"24 Hour Access, Air Conditioning, Controlled Access, Laundry Facilities, Picnic Area, Property Manager on Site, Tenant Controlled HVAC, Grill, Renters Insurance Program, Hearing Impaired Accessible, Maintenance on site, Online Services, Vision Impaired Accessible, Dining Room, Window Coverings",1.15,1214,1060,B,,Vancouver,11.79,"24 Hour Access, Air Conditioning, Controlled Access, Laundry Facilities, Picnic Area, Property Manager on Site, Tenant Controlled HVAC, Grill, Renters Insurance Program, Hearing Impaired Accessible, Maintenance on site, Online Services, Vision Impaired Accessible, Dining Room, Window Coverings",,2.1992,45.6634300,,-122.6108961,0,2,41,950,1.51,Not Disclosed,56032,,Garden,Walnut Grove,1350,1167,2000,,98661,MD
51.38,48.62,,,,"Air Conditioning, Clubhouse, Courtyard, Fitness Center, Property Manager on Site, Tanning Salon, Cabana, Wi-Fi, Deck, Patio, Wheelchair Accessible (Rooms)",1.32,1215,919,B,,Vancouver,11.15,"Air Conditioning, Clubhouse, Courtyard, Fitness Center, Property Manager on Site, Tanning Salon, Cabana, Wi-Fi, Deck, Patio, Wheelchair Accessible (Rooms)",,1.36,45.6473190,,-122.6085050,0,2,218,776,1.28,Not Disclosed,195590,,Garden,Bagley Downs,,1071,2006,,98661,MG
15.91,29.55,13.64,0.1818,22.73,"Air Conditioning, Smoke Free, Patio, Smoke Free, Wheelchair Accessible (Rooms)",1.19,1250,1053,B,,Vancouver,11.24,"Air Conditioning, Smoke Free, Patio, Smoke Free, Wheelchair Accessible (Rooms)",1776,2.54,45.6613107,,-122.6036950,0,2,78,872,1.25,Not Disclosed,76774,400,Townhome,Walnut Grove,1250,1050,2003,,98661-2474,"R-30, Vancouver"
23.53,76.47,,,,"24 Hour Access, Air Conditioning, Laundry Facilities, Property Manager on Site, Smoke Free, Maintenance on site, Patio, Smoke Free, Wheelchair Accessible (Rooms)",1.80,1583,878,B,,Vancouver,11.57,"24 Hour Access, Air Conditioning, Laundry Facilities, Property Manager on Site, Smoke Free, Maintenance on site, Patio, Smoke Free, Wheelchair Accessible (Rooms)",,2.795271,45.6756309,,-122.5325171,0,2,51,767,0.48,Not Disclosed,61786,,Garden,Orchards Area,,912,2003,,98682-5225,MD
,,100.00,,,"Air Conditioning, Gated, Walking/Biking Trails, Yard, Online Services, Island Kitchen, Public Transportation",1.27,2000,1577,B,,Vancouver,11.17,"Air Conditioning, Gated, Walking/Biking Trails, Yard, Online Services, Island Kitchen, Public Transportation",,1.3817,45.6756641,,-122.5752078,0,2,30,,,Not Disclosed,51317,,Garden,Orchards Area,1577,,2007,,98662-3919,ME
50.00,50.00,,,,"Air Conditioning, Wheelchair Accessible (Rooms)",1.90,1565,824,B,,Vancouver,10.06,"Air Conditioning, Wheelchair Accessible (Rooms)",,1.54,45.6600649,,-122.5934642,0,2,32,747,1.07,Not Disclosed,42130,,Garden,Walnut Grove,,901,2005,,98662,R-
4.72,90.57,2.83,,1.89,"Air Conditioning, Business Center, Clubhouse, Laundry Facilities, Furnished Units Available, Smoke Free, Wheelchair Accessible (Rooms)",1.93,1692,879,B,,Portland,0.32,"Air Conditioning, Business Center, Clubhouse, Laundry Facilities, Furnished Units Available, Smoke Free, Wheelchair Accessible (Rooms)",,2.52,45.4997331,,-122.5673695,0,3,104,534,1.37,Not Disclosed,87527,518,Garden,Powellhurst-Gilbert,1190,890,2003,,97266-1981,R2
,100.00,,,,"Air Conditioning, Property Manager on Site, Wheelchair Accessible (Rooms)",1.33,1283,963,C,,Portland,0.51,"Air Conditioning, Property Manager on Site, Wheelchair Accessible (Rooms)",,0.46,45.5071920,,-122.5638440,0,3,36,,1.30,Not Disclosed,34500,,Garden,Gateway,,963,2001,,97216,C01
69.23,30.77,,,,"Air Conditioning, Laundry Facilities, Wheelchair Accessible (Rooms)",2.08,1057,508,B,,Portland,0.24,"Air Conditioning, Laundry Facilities, Wheelchair Accessible (Rooms)",,0.6791,45.5213990,,-122.5550479,0,2,26,450,0.94,Not Disclosed,23384,,Low-Rise,Gateway,,640,2006,,97216,R1
34.04,61.70,,,4.26,"Air Conditioning, Property Manager on Site, Wheelchair Accessible (Rooms)",1.43,1362,953,B,,Vancouver,9.24,"Air Conditioning, Property Manager on Site, Wheelchair Accessible (Rooms)",,1.61,45.6574518,,-122.5583177,0,2,47,900,1.30,Not Disclosed,50580,400,Garden,Kevanna Park,,1020,2002,,98682,MG
22.95,77.05,,,,"Air Conditioning, Business Center, Controlled Access, Clubhouse, Fitness Center, Laundry Facilities, Playground, Property Manager on Site, Package Service, Wi-Fi, Storage Space, Lounge, Maintenance on site, Sundeck, Dining Room, Vinyl Flooring, Window Coverings",1.85,1601,866,B,,Vancouver,12.95,"Air Conditioning, Business Center, Controlled Access, Clubhouse, Fitness Center, Laundry Facilities, Playground, Property Manager on Site, Package Service, Wi-Fi, Storage Space, Lounge, Maintenance on site, Sundeck, Dining Room, Vinyl Flooring, Window Coverings",,10.19,45.7031810,,-122.5570130,0,2,244,747,1.83,Not Disclosed,213884,,Garden,Orchards Area,,901,2007,,98662-3264,XD
3.33,73.33,23.33,,,"Air Conditioning, Fenced Lot, Property Manager on Site, Gated, Recycling, Renters Insurance Program, Smoke Free, Walking/Biking Trails, Online Services, Pond, Deck, Patio, Vinyl Flooring",1.70,1818,1070,B,,Vancouver,9.95,"Air Conditioning, Fenced Lot, Property Manager on Site, Gated, Recycling, Renters Insurance Program, Smoke Free, Walking/Biking Trails, Online Services, Pond, Deck, Patio, Vinyl Flooring",,2.62,45.6612548,,-122.5532244,0,3,60,669,0.00,Not Disclosed,61029,,Garden,North Image,1373,993,2007,,98682,R-18
,100.00,,,,"Air Conditioning, Wheelchair Accessible (Rooms)",0.92,925,1000,B,,Portland,1.03,"Air Conditioning, Wheelchair Accessible (Rooms)",,0.674,45.5075860,,-122.5379750,0,3,30,,1.14,Not Disclosed,30000,,Low-Rise,Mill Park,,1000,2001,,97233,"R1, Portland"
,100.00,,,,"Air Conditioning, Wheelchair Accessible (Rooms)",,,949,B,,Portland,9.91,"Air Conditioning, Wheelchair Accessible (Rooms)",,0.87,45.4912720,,-122.5382570,0,3,36,,1.83,Not Disclosed,27383,,Low-Rise,Powellhurst-Gilbert,,949,2004,,97236-3888,MR3
,100.00,,,,"Air Conditioning, Laundry Facilities, Wheelchair Accessible (Rooms)",0.94,843,899,A,,Portland,9.96,"Air Conditioning, Laundry Facilities, Wheelchair Accessible (Rooms)",,0.88,45.4907580,,-122.5389700,0,3,39,,1.07,Not Disclosed,36971,,Low-Rise,Powellhurst-Gilbert,,899,2000,,97236,R1
,,53.13,0.46880000000000005,,"Air Conditioning, Wheelchair Accessible (Rooms)",1.25,1801,1435,B,,Portland,11.1,"Air Conditioning, Wheelchair Accessible (Rooms)",1435,1.67,45.4796545,,-122.5368962,0,2,32,,0.00,Not Disclosed,45920,,Garden,Powellhurst-Gilbert,1435,,2009,,97236-4607,R2
,48.89,51.11,,,"Controlled Access, Recycling, Online Services, Deck, Dining Room, Linen Closet, Patio, Wheelchair Accessible (Rooms)",1.43,1447,1012,C,,Portland,9.39,"Controlled Access, Recycling, Online Services, Deck, Dining Room, Linen Closet, Patio, Wheelchair Accessible (Rooms)",,1.89,45.5008873,,-122.5329873,0,2,45,,1.40,Not Disclosed,48352,,Garden,Powellhurst-Gilbert,1034,990,2004,,97236-3179,R2a
43.48,56.52,,,,"Air Conditioning, Storage Space, Deck, Dining Room, Patio, Wheelchair Accessible (Rooms)",1.44,1274,885,B,,Beaverton,1.91,"Air Conditioning, Storage Space, Deck, Dining Room, Patio, Wheelchair Accessible (Rooms)",,1.340014,45.4472040,,-122.8045260,0,3,46,717,1.39,Not Disclosed,40704,,Low-Rise,Greenway,,1014,2003,,97008-8101,"R1, Beaverton"
22.14,67.18,10.69,,,"Air Conditioning, Clubhouse, Fitness Center, Picnic Area, Playground, Pool, Property Manager on Site, Spa, Tanning Salon, Grill, Racquetball Court, Recycling, Online Services, Grill, Deck, Lawn, Patio, Skylights, Wheelchair Accessible (Rooms)",1.83,1834,1001,B,,Vancouver,8.11,"Air Conditioning, Clubhouse, Fitness Center, Picnic Area, Playground, Pool, Property Manager on Site, Spa, Tanning Salon, Grill, Racquetball Court, Recycling, Online Services, Grill, Deck, Lawn, Patio, Skylights, Wheelchair Accessible (Rooms)",,4.84,45.6146302,,-122.5349196,0,3,131,670,1.06,Not Disclosed,130148,,Garden,Cascade Park,1300,1063,2004,,98683,ME
53.33,46.67,,,,"Air Conditioning, Basketball Court, Smoke Free, Wheelchair Accessible (Rooms)",1.50,1232,819,B,,Vancouver,8.08,"Air Conditioning, Basketball Court, Smoke Free, Wheelchair Accessible (Rooms)",,2.39,45.6140450,,-122.5319720,0,2,45,747,1.12,Not Disclosed,44276,,Garden,Cascade Park,,901,2005,,98683,R-3
,0.83,99.17,,,"Air Conditioning, Laundry Facilities, Playground, Property Manager on Site, Package Service, Storage Space, Maintenance on site, Dining Room, Vinyl Flooring, Window Coverings",1.65,1679,1020,A,,Vancouver,9.05,"Air Conditioning, Laundry Facilities, Playground, Property Manager on Site, Package Service, Storage Space, Maintenance on site, Dining Room, Vinyl Flooring, Window Coverings",,5.7,45.6404800,,-122.5302080,0,2,120,,1.98,Not Disclosed,126120,,Garden,Landover-Sharmel,1021,981,2007,,98684,R22
27.50,67.50,5.00,,,"Air Conditioning, Business Center, Controlled Access, Clubhouse, Fitness Center, Laundry Facilities, Playground, Pool, Property Manager on Site, Spa, Package Service, Wi-Fi, Storage Space, Maintenance on site, Window Coverings",1.74,1896,1088,B,,Vancouver,15.14,"Air Conditioning, Business Center, Controlled Access, Clubhouse, Fitness Center, Laundry Facilities, Playground, Pool, Property Manager on Site, Spa, Package Service, Wi-Fi, Storage Space, Maintenance on site, Window Coverings",,9.82,45.7234410,,-122.6467040,0,3,400,742,0.93,Not Disclosed,448846,,Garden,Pleasant Valley Vancouver,1672,1186,2005,,98686,ME
,100.00,,,,"Air Conditioning, Property Manager on Site, Recycling, Deck, Wheelchair Accessible (Rooms)",1.48,1221,823,B,,Portland,0.16,"Air Conditioning, Property Manager on Site, Recycling, Deck, Wheelchair Accessible (Rooms)",,0.75,45.5235333,,-122.5123188,0,3,33,,1.30,Not Disclosed,28500,,Low-Rise,Gateway,,823,2005,,97230,RHT
10.71,89.29,,,,"Air Conditioning, Property Manager on Site, Wheelchair Accessible (Rooms)",1.04,901,866,A,,Portland,0.4,"Air Conditioning, Property Manager on Site, Wheelchair Accessible (Rooms)",,0.6319,45.5195510,,-122.4996543,0,3,28,650,,Not Disclosed,23136,,Low-Rise,Glenfair,,893,2005,,97233,R1
37.66,31.17,31.17,,,"Air Conditioning, Controlled Access, Playground, Property Manager on Site, Security System, Gated, Planned Social Activities, Maintenance on site, Dining Room, Patio, Smoke Free, Wheelchair Accessible (Rooms)",1.95,1615,827,B,,Portland,6.09,"Air Conditioning, Controlled Access, Playground, Property Manager on Site, Security System, Gated, Planned Social Activities, Maintenance on site, Dining Room, Patio, Smoke Free, Wheelchair Accessible (Rooms)",,6.04,45.5487420,,-122.4968330,0,2,77,532,1.32,Not Disclosed,75786,,Garden,Wilkes-Hemlock,1044,968,2006,,97230,R3
31.58,55.26,13.16,,,"Air Conditioning, Clubhouse, Fitness Center, Laundry Facilities, Playground, Property Manager on Site, Spa, Package Service, Storage Space, Lounge, Maintenance on site, Sundeck, Dining Room, Vinyl Flooring, Window Coverings",1.95,1844,944,B,,Happy Valley,16.31,"Air Conditioning, Clubhouse, Fitness Center, Laundry Facilities, Playground, Property Manager on Site, Spa, Package Service, Storage Space, Lounge, Maintenance on site, Sundeck, Dining Room, Vinyl Flooring, Window Coverings",,8.9112,45.4261370,,-122.4958830,0,3,228,740,1.32,Not Disclosed,226404,,Garden,Rock Creek,1168,1009,2007,,97015-3602,MURM1
,15.17,84.83,,,"24 Hour Access, Air Conditioning, Business Center, Courtyard, Fitness Center, Picnic Area, Property Manager on Site, Sauna, Spa, Gated, Tanning Salon, Gameroom, Media Center/Movie Theatre, Sundeck, Dining Room, Pantry, Patio, Porch, Wheelchair Accessible (Rooms)",1.27,1737,1369,B,,Vancouver,9.58,"24 Hour Access, Air Conditioning, Business Center, Courtyard, Fitness Center, Picnic Area, Property Manager on Site, Sauna, Spa, Gated, Tanning Salon, Gameroom, Media Center/Movie Theatre, Sundeck, Dining Room, Pantry, Patio, Porch, Wheelchair Accessible (Rooms)",,12.96,45.6179150,,-122.5006610,0,2,145,,0.73,Not Disclosed,196760,,Garden,Bennington,1393,1238,2002,,98684,R-
25.00,25.00,50.00,,,"Controlled Access, Laundry Facilities, Playground, Property Manager on Site, Package Service, Storage Space, Dining Room, Vinyl Flooring",1.37,1305,952,B,,Portland,0.38,"Controlled Access, Laundry Facilities, Playground, Property Manager on Site, Package Service, Storage Space, Dining Room, Vinyl Flooring",,1.2785,45.5197024,,-122.4894027,0,2,32,750,,Not Disclosed,32192,,Garden,Rockwood,1044,968,2004,,97233-7303,CMU
48.72,51.28,,,,"Air Conditioning, Wheelchair Accessible (Rooms), Window Coverings",1.16,1039,894,B,,Portland,0.08,"Air Conditioning, Wheelchair Accessible (Rooms), Window Coverings",,0.9862,45.5228889,,-122.4867892,0,3,39,625,1.00,Not Disclosed,33000,,Low-Rise,Rockwood,,1150,2007,,97230-6463,LR7
,100.00,,,,"Air Conditioning, Playground, Property Manager on Site, Storage Space, Patio, Wheelchair Accessible (Rooms)",1.00,898,900,B,,Portland,0.22,"Air Conditioning, Playground, Property Manager on Site, Storage Space, Patio, Wheelchair Accessible (Rooms)",,0.8283,45.5174922,,-122.4641033,0,2,38,,1.53,Not Disclosed,34200,,Low-Rise,Rockwood,,900,2001,,97233-5784,"MUC2, Gresham"
36.36,47.73,15.91,,,"Air Conditioning, Business Center, Clubhouse, Fitness Center, Laundry Facilities, Pool, Property Manager on Site, Spa, Maintenance on site, Freezer, Patio",2.04,2104,1030,B,,Hillsboro,0.08,"Air Conditioning, Business Center, Clubhouse, Fitness Center, Laundry Facilities, Pool, Property Manager on Site, Spa, Maintenance on site, Freezer, Patio",,8.42,45.5299871,,-122.9168579,0,3,264,814,1.14,Not Disclosed,276510,,Garden,Orenco Station,1288,1108,2004,,97124,SCR-V; Hillsboro
19.59,60.31,20.10,,,"Property Manager on Site, Smoke Free, Maintenance on site, Smoke Free, Public Transportation",1.92,1876,976,B,,Beaverton,3.62,"Property Manager on Site, Smoke Free, Maintenance on site, Smoke Free, Public Transportation",,1.68,45.4284900,,-122.8319130,0,3,194,680,1.74,Not Disclosed,174600,,Garden,Neighbors Southwest,1195,1001,2009,,97007,TC-HDR
20.00,80.00,,,,"24 Hour Access, Air Conditioning, Controlled Access, Property Manager on Site, Pet Play Area, Walking/Biking Trails, Maintenance on site, Patio, Wheelchair Accessible (Rooms), Window Coverings",2.19,1841,841,B,,Beaverton,2.76,"24 Hour Access, Air Conditioning, Controlled Access, Property Manager on Site, Pet Play Area, Walking/Biking Trails, Maintenance on site, Patio, Wheelchair Accessible (Rooms), Window Coverings",,6.53,45.4510085,,-122.8288251,0,3,120,635,0.86,Not Disclosed,144828,,Garden,Sexton Mountain,,893,2000,,97007-6257,R2
80.49,19.51,,,,"Air Conditioning, Business Center, Controlled Access, Fitness Center, Laundry Facilities, Property Manager on Site, Doorman, Package Service, Storage Space, Elevator, Maintenance on site, Den, Dining Room, Loft Layout, Window Coverings",2.33,2310,990,A,,Portland,7.79,"Air Conditioning, Business Center, Controlled Access, Fitness Center, Laundry Facilities, Property Manager on Site, Doorman, Package Service, Storage Space, Elevator, Maintenance on site, Den, Dining Room, Loft Layout, Window Coverings",,0.45,45.5167403,,-122.6435558,0,5,123,863,0.67,Not Disclosed,221168,,Mid-Rise,Buckman,,1513,2008,,97214-2898,C2
74.61,17.96,,,7.43,"Air Conditioning, Clubhouse, Fitness Center, Picnic Area, Property Manager on Site, Security System, Grill, On-Site Retail, Elevator, Garden, Wheelchair Accessible (Rooms)",2.38,2593,1090,A,,Portland,0.06,"Air Conditioning, Clubhouse, Fitness Center, Picnic Area, Property Manager on Site, Security System, Grill, On-Site Retail, Elevator, Garden, Wheelchair Accessible (Rooms)",,1.16,45.4959388,LEED Interiors - Gold,-122.6704113,5,30,323,965,0.43,Not Disclosed,577628,846,Hi-Rise,South Waterfront,,1709,2008,,97239-4571,CX
78.18,12.73,,,9.09,"Courtyard, Patio",1.73,1188,695,B,,Portland,0.15,"Courtyard, Patio",,0.9619,45.5843309,,-122.6886289,0,4,105,646,,Not Disclosed,80360,468,Mid-Rise,Kenton,,1135,2008,,97217-6866,CS
71.43,28.57,,,,"Air Conditioning, Business Center, Clubhouse, Property Manager on Site, Security System, Gated, Grill, Wheelchair Accessible (Rooms)",1.16,711,613,B,,Portland,0.2,"Air Conditioning, Business Center, Clubhouse, Property Manager on Site, Security System, Gated, Grill, Wheelchair Accessible (Rooms)",,0.4264,45.5223510,,-122.5541682,1,4,21,540,1.04,Not Disclosed,24066,,Mid-Rise,Gateway,,795,2004,,97216,RH
74.07,25.93,,,,"24 Hour Access, Air Conditioning, Controlled Access, Laundry Facilities, Property Manager on Site, Tenant Controlled HVAC, Recycling, Renters Insurance Program, Hearing Impaired Accessible, Maintenance on site, Multi Use Room, Online Services, Vision Impaired Accessible, Handrails, Trash Compactor, Vinyl Flooring, Warming Drawer, Wheelchair Accessible (Rooms), Window Coverings, Public Transportation, Individual Locking Bedrooms, Private Bathroom",1.50,1185,788,B,,Portland,0.04,"24 Hour Access, Air Conditioning, Controlled Access, Laundry Facilities, Property Manager on Site, Tenant Controlled HVAC, Recycling, Renters Insurance Program, Hearing Impaired Accessible, Maintenance on site, Multi Use Room, Online Services, Vision Impaired Accessible, Handrails, Trash Compactor, Vinyl Flooring, Warming Drawer, Wheelchair Accessible (Rooms), Window Coverings, Public Transportation, Individual Locking Bedrooms, Private Bathroom",,0.4261,45.5220900,,-122.5384810,0,4,54,740,0.70,Not Disclosed,42600,,Mid-Rise,Gateway,,925,2005,,97216,CST
,50.00,50.00,,,"Air Conditioning, Picnic Area, Cabana, Bicycle Storage, Wheelchair Accessible (Rooms)",1.27,1287,1011,B,,Portland,0.35,"Air Conditioning, Picnic Area, Cabana, Bicycle Storage, Wheelchair Accessible (Rooms)",,0.824,45.5229470,,-122.5173500,0,2,36,,3.08,Not Disclosed,44444,,Garden,Gateway,1097,924,2004,,97233-2133,R2
,100.00,,,,"Air Conditioning, Clubhouse, Fitness Center, Property Manager on Site, Tanning Salon, Wi-Fi, Deck, Patio, Wheelchair Accessible (Rooms)",1.09,1098,1010,B,,Portland,9.69,"Air Conditioning, Clubhouse, Fitness Center, Property Manager on Site, Tanning Salon, Wi-Fi, Deck, Patio, Wheelchair Accessible (Rooms)",,0.406612,45.4946860,,-122.5368401,0,2,20,,,Not Disclosed,20408,,Low-Rise,Powellhurst-Gilbert,,1010,2009,,97236-3492,CO2
31.43,68.57,,,,"24 Hour Access, Air Conditioning, Fitness Center, Wheelchair Accessible (Rooms)",1.62,1412,871,B,,Portland,9.75,"24 Hour Access, Air Conditioning, Fitness Center, Wheelchair Accessible (Rooms)",,2.0664,45.4937218,,-122.5362059,0,3,70,700,1.22,Not Disclosed,61420,,Garden,Powellhurst-Gilbert,,950,2004,,97236-3457,R5
,100.00,,,,"Air Conditioning, Playground, Patio, Wheelchair Accessible (Rooms)",1.22,1158,950,B,,Portland,10.3,"Air Conditioning, Playground, Patio, Wheelchair Accessible (Rooms)",,1.1278,45.4947524,,-122.5248109,0,3,32,,,Not Disclosed,31800,,Garden,Powellhurst-Gilbert,,950,2006,,97236,"R2, Portland"
28.22,60.74,11.04,,,"Business Center, Clubhouse, Fitness Center, Laundry Facilities, Playground, Spa, Package Service, Storage Space, Lounge, Maintenance on site, Sundeck, Dining Room, Vinyl Flooring, Window Coverings",1.87,1898,1016,B,,Wilsonville,2.81,"Business Center, Clubhouse, Fitness Center, Laundry Facilities, Playground, Spa, Package Service, Storage Space, Lounge, Maintenance on site, Sundeck, Dining Room, Vinyl Flooring, Window Coverings",,20.2,45.3336830,,-122.7567600,0,3,326,770,1.04,Not Disclosed,436899,,Garden,Sherwood/Tualatin South,1296,1079,2003,,97070,PDR6
34.88,65.12,,,,"Smoke Free, Wheelchair Accessible (Rooms)",1.83,1728,943,B,,Sandy,23.98,"Smoke Free, Wheelchair Accessible (Rooms)",,2.7597,45.3862527,,-122.2594272,0,2,43,673,,Not Disclosed,60262,,Garden,Outlying Clackamas County,,1087,2003,,97055-5363,R2
16.67,60.95,22.38,,,"Air Conditioning, Fitness Center, Playground, Pool, Gated, Basketball Court, Package Service, Pet Play Area, Patio, Wheelchair Accessible (Rooms), Public Transportation",1.68,1981,1176,A,,Happy Valley,0.79,"Air Conditioning, Fitness Center, Playground, Pool, Gated, Basketball Court, Package Service, Pet Play Area, Patio, Wheelchair Accessible (Rooms), Public Transportation",,6.8334,45.4431670,,-122.5753420,0,3,210,638,2.13,Not Disclosed,250000,,Garden,Southgate,1565,1181,2007,,97086-4710,RCHD
10.38,56.83,32.79,,,"Air Conditioning, Courtyard, Fitness Center, Playground, Property Manager on Site, Media Center/Movie Theatre, Recycling, Wheelchair Accessible (Rooms)",1.83,2167,1185,B,,Sherwood,5.74,"Air Conditioning, Courtyard, Fitness Center, Playground, Property Manager on Site, Media Center/Movie Theatre, Recycling, Wheelchair Accessible (Rooms)",,7.4,45.3628621,,-122.8555281,0,3,183,760,,Not Disclosed,197997,,Garden,Sherwood/Tualatin North,1560,1046,2009,,97140,HDR
,16.24,83.76,,,"Air Conditioning, Courtyard, Fitness Center, Property Manager on Site, Maintenance on site, Patio",1.71,2481,1450,A,,Portland,8.55,"Air Conditioning, Courtyard, Fitness Center, Property Manager on Site, Maintenance on site, Patio",,7.49,45.5621088,,-122.8652196,0,3,197,,0.52,Not Disclosed,286680,,Garden,Bethany,1557,900,2002,,97229,R-24
17.74,75.81,6.45,,,"Air Conditioning, Clubhouse, Fitness Center, Picnic Area, Spa, Gated, Cabana, Car Wash Area, Grill, Wheelchair Accessible (Rooms)",1.86,1830,983,B,,Fairview,11.39,"Air Conditioning, Clubhouse, Fitness Center, Picnic Area, Spa, Gated, Cabana, Car Wash Area, Grill, Wheelchair Accessible (Rooms)",,,45.5327965,,-122.4367342,0,3,124,596,0.51,Not Disclosed,30048,,Garden,Outlying Troutdale/Gresham,1234,1053,2000,,97024-2619,"FV, Fairway"
,100.00,,,,"24 Hour Access, Air Conditioning, Picnic Area, Playground, Property Manager on Site, Basketball Court, Grill, Smoke Free, Walking/Biking Trails, Wheelchair Accessible (Rooms)",1.47,1364,930,B,,Battle Ground,19.05,"24 Hour Access, Air Conditioning, Picnic Area, Playground, Property Manager on Site, Basketball Court, Grill, Smoke Free, Walking/Biking Trails, Wheelchair Accessible (Rooms)",,1.22,45.7776420,,-122.5286979,0,2,30,,,Not Disclosed,28830,,Low-Rise,Outlying Clark  County,,930,2006,,98604-8983,MK
30.77,69.23,,,,"Air Conditioning, Playground, Deck, Patio, Wheelchair Accessible (Rooms)",1.24,1104,889,B,,Troutdale,13.37,"Air Conditioning, Playground, Deck, Patio, Wheelchair Accessible (Rooms)",,1.728,45.5192091,,-122.3911745,0,3,39,702,2.00,Not Disclosed,45672,,Low-Rise,Outlying Troutdale/Gresham,,972,2001,,97060-3174,"MFR, Troutdale"
28.57,57.14,14.29,,,"Air Conditioning, Clubhouse, Property Manager on Site, Gameroom, Wi-Fi, Online Services, Wheelchair Accessible (Rooms)",1.97,1853,939,B,,Hillsboro,0.85,"Air Conditioning, Clubhouse, Property Manager on Site, Gameroom, Wi-Fi, Online Services, Wheelchair Accessible (Rooms)",,5.77,45.5196771,,-122.9001252,0,3,84,696,,Not Disclosed,84000,,Garden,Orenco Station,1173,1002,2001,,97124,R-15
,100.00,,,,"Air Conditioning, Courtyard, Laundry Facilities, Picnic Area, Playground, Basketball Court, Grill, Laundry Service, Wheelchair Accessible (Rooms)",2.05,1539,750,B,,Cornelius,34.58,"Air Conditioning, Courtyard, Laundry Facilities, Picnic Area, Playground, Basketball Court, Grill, Laundry Service, Wheelchair Accessible (Rooms)",,2.28,45.5238283,,-123.0578807,0,2,46,,1.60,Not Disclosed,38979,,Garden,Outlying Washington County,,750,2004,,97113-9003,"A2, Cornelius"
,90.20,,,9.80,"Air Conditioning, Fitness Center, Laundry Facilities, Property Manager on Site, Grill, Dining Room, Window Coverings",1.78,1537,865,B,,Portland,0.47,"Air Conditioning, Fitness Center, Laundry Facilities, Property Manager on Site, Grill, Dining Room, Window Coverings",,1.1603,45.5038030,,-122.5604330,0,3,50,,1.15,Not Disclosed,43200,426,Garden,Powellhurst-Gilbert,,914,2008,,97266-1332,CO2
,100.00,,,,"Air Conditioning, Storage Space, Patio, Wheelchair Accessible (Rooms)",1.93,1962,1018,B,,Beaverton,0.83,"Air Conditioning, Storage Space, Patio, Wheelchair Accessible (Rooms)",,3.06,45.5140478,,-122.8828086,0,2,56,,1.95,Not Disclosed,57960,,Garden,Cooper Mountain-Aloha North,,1018,2001,,97006-2072,"R15, Beaverton"
15.58,70.13,14.29,,,"Air Conditioning, Gameroom, Pet Play Area, Smoke Free, Wheelchair Accessible (Rooms)",1.24,1215,976,A,,Sandy,23.65,"Air Conditioning, Gameroom, Pet Play Area, Smoke Free, Wheelchair Accessible (Rooms)",,1.9247,45.3901871,,-122.2574653,0,2,77,733,,Not Disclosed,41942,,Garden,Outlying Clackamas County,1129,1000,2001,,97055,R3
,57.14,42.86,,,,1.05,1576,1498,B,,Hillsboro,26.64,,,1,45.5484788,,-122.9666086,0,2,21,,,Not Disclosed,31465,,Townhome,Northwest Hillsboro,1610,1415,2007,,97124-4134,MFR-2
21.16,63.23,11.11,,4.50,"Air Conditioning, Clubhouse, Fitness Center, Playground, Spa, Grill, Recycling, Trash Pickup - Door to Door, Online Services, Island Kitchen, Loft Layout, Wheelchair Accessible (Rooms)",1.89,1848,979,A,,Vancouver,7.01,"Air Conditioning, Clubhouse, Fitness Center, Playground, Spa, Grill, Recycling, Trash Pickup - Door to Door, Online Services, Island Kitchen, Loft Layout, Wheelchair Accessible (Rooms)",,3.97,45.6128975,,-122.5592105,0,3,378,654,1.13,Not Disclosed,370294,522,Garden,Ellsworth Springs,1300,1065,2003,,98664-6299,MG
,88.64,11.36,,,"Air Conditioning, Clubhouse, Laundry Facilities, Laundry Service, Pet Play Area, Online Services, Deck, Dining Room, Patio, Wheelchair Accessible (Rooms)",1.23,1129,918,B,,Mcminnville,,"Air Conditioning, Clubhouse, Laundry Facilities, Laundry Service, Pet Play Area, Online Services, Deck, Dining Room, Patio, Wheelchair Accessible (Rooms)",,5,45.2302448,,-123.1929923,0,2,88,,,Not Disclosed,88000,,Garden,Yamhill County,1250,875,2000,,97128-8258,R4
57.14,42.86,,,,"Air Conditioning, Wheelchair Accessible (Rooms)",1.70,1179,694,B,,Mcminnville,,"Air Conditioning, Wheelchair Accessible (Rooms)",,1.31,45.2038629,,-123.1940366,0,2,33,650,1.75,Not Disclosed,26250,,Low-Rise,Yamhill County,,750,2000,,97128,R4
,79.55,20.45,,,,1.36,1317,967,C,,Portland,11.12,,,0.6718,45.4769135,,-122.5310736,0,3,44,,,Not Disclosed,55200,,Garden,Powellhurst-Gilbert,1136,924,2009,,97236-4702,R2
19.57,73.91,6.52,,,"Air Conditioning, Online Services, Smoke Free, Wheelchair Accessible (Rooms)",1.77,1562,885,A,,Milwaukie,13.16,"Air Conditioning, Online Services, Smoke Free, Wheelchair Accessible (Rooms)",,1.79,45.4386500,,-122.5844810,0,3,45,724,1.19,Not Disclosed,62982,,Garden,Southgate,1160,903,2005,,97222,HDR
47.96,31.97,,,20.07,"Air Conditioning, Clubhouse, Courtyard, Fitness Center, Property Manager on Site, Waterfront, Gated, Grill, Walking/Biking Trails, Elevator, Lounge, Patio, Smoke Free, Wheelchair Accessible (Rooms)",2.86,2356,823,A,,Portland,0.04,"Air Conditioning, Clubhouse, Courtyard, Fitness Center, Property Manager on Site, Waterfront, Gated, Grill, Walking/Biking Trails, Elevator, Lounge, Patio, Smoke Free, Wheelchair Accessible (Rooms)",,0.92,45.4960510,LEED Interiors - Gold,-122.6712660,3,22,294,781,0.99,Not Disclosed,238507,787,Hi-Rise,South Waterfront,,908,2009,,97239-4410,CX
16.67,50.00,33.33,,,"24 Hour Access, Air Conditioning, Laundry Facilities, Playground, Property Manager on Site, Online Services, Smoke Free, Wheelchair Accessible (Rooms)",2.05,2057,1005,B,,Portland,9.86,"24 Hour Access, Air Conditioning, Laundry Facilities, Playground, Property Manager on Site, Online Services, Smoke Free, Wheelchair Accessible (Rooms)",,7.29,45.5643470,,-122.8947300,0,3,180,659,1.17,Not Disclosed,175480,,Garden,West Union,1186,1000,2003,,97229-7167,R-15
66.67,33.33,,,,"Air Conditioning, Fitness Center, Vinyl Flooring, Wheelchair Accessible (Rooms)",1.19,1061,893,B,,Portland,0.39,"Air Conditioning, Fitness Center, Vinyl Flooring, Wheelchair Accessible (Rooms)",,0.6363,45.5260693,,-122.5614639,0,4,45,840,0.76,Not Disclosed,45528,,Mid-Rise,Gateway,,999,2004,,97220-4400,RHT
35.47,64.53,,,,"Air Conditioning, Clubhouse, Fitness Center, Property Manager on Site, Spa, Waterfront, Media Center/Movie Theatre, Lake Access, Maintenance on site, Online Services, Built-In Bookshelves, Dining Room, Island Kitchen, Patio, Wheelchair Accessible (Rooms)",2.04,1975,966,B,,Fairview,11.33,"Air Conditioning, Clubhouse, Fitness Center, Property Manager on Site, Spa, Waterfront, Media Center/Movie Theatre, Lake Access, Maintenance on site, Online Services, Built-In Bookshelves, Dining Room, Island Kitchen, Patio, Wheelchair Accessible (Rooms)",,7.4641,45.5281940,,-122.4438330,0,3,203,732,0.65,Not Disclosed,199694,,Garden,Outlying Troutdale/Gresham,,1095,2004,,97024-3839,RMF
,48.00,52.00,,,"Deck, Dining Room, Family Room, Patio, Vinyl Flooring, Wheelchair Accessible (Rooms), Window Coverings",0.93,1737,1873,B,,Portland,1.03,"Deck, Dining Room, Family Room, Patio, Vinyl Flooring, Wheelchair Accessible (Rooms), Window Coverings",,0.041,45.5347811,,-122.4888679,0,3,25,,,Not Disclosed,46828,,Townhome,Wilkes East,1803,1949,2007,,97230-6009,CMF
1.82,49.09,49.09,,,"24 Hour Access, Air Conditioning, Controlled Access, Playground, Property Manager on Site, Storage Space, Intercom, Linen Closet, Patio, Smoke Free, Wheelchair Accessible (Rooms)",1.85,1837,993,C,,Portland,0.99,"24 Hour Access, Air Conditioning, Controlled Access, Playground, Property Manager on Site, Storage Space, Intercom, Linen Closet, Patio, Smoke Free, Wheelchair Accessible (Rooms)",,2.42,45.5345038,,-122.4844308,0,2,55,610,2.39,Not Disclosed,56560,,Garden,Wilkes East,1044,956,2005,,97230-6097,CMF
,,100.00,,,"Air Conditioning, Laundry Facilities, Wheelchair Accessible (Rooms)",,,1400,B,,Beaverton,1.41,"Air Conditioning, Laundry Facilities, Wheelchair Accessible (Rooms)",,2.07,45.4818321,,-122.8184766,0,3,48,,1.43,Not Disclosed,67200,,Garden,Central Beaverton,1400,,2008,,97005,R2
10.11,75.28,14.61,,,"Picnic Area, Playground, Property Manager on Site, Grill, Pet Play Area, Wheelchair Accessible (Rooms), Public Transportation",2.08,2062,990,B,,Hillsboro,0.33,"Picnic Area, Playground, Property Manager on Site, Grill, Pet Play Area, Wheelchair Accessible (Rooms), Public Transportation",,6.02,45.5205403,,-122.8698049,0,2,178,672,,Not Disclosed,163650,,Garden,Sommerset West-Elmonica South,1156,1001,2006,,97006-5001,UC-RM
25.00,65.28,9.72,,,"Air Conditioning, Wheelchair Accessible (Rooms)",1.06,937,881,B,,Portland,10.01,"Air Conditioning, Wheelchair Accessible (Rooms)",,1.7712,45.4903474,,-122.5390095,0,3,72,710,1.65,Not Disclosed,63770,,Garden,Powellhurst-Gilbert,1094,915,2002,,97266,NC
,,100.00,,,,,,,B,,Portland,10.68,,,1.08,45.4891328,,-122.5237914,0,3,20,,,Not Disclosed,43200,,Garden,Powellhurst-Gilbert,,,2001,,97236,R3
26.15,43.08,,,30.77,"Air Conditioning, Picnic Area, Playground, Property Manager on Site, Maintenance on site, Online Services, Deck, Double Pane Windows, Patio, Vinyl Flooring, Wheelchair Accessible (Rooms)",1.78,1327,746,C,,Gresham,0.22,"Air Conditioning, Picnic Area, Playground, Property Manager on Site, Maintenance on site, Online Services, Deck, Double Pane Windows, Patio, Vinyl Flooring, Wheelchair Accessible (Rooms)",,1.7,45.5055070,,-122.4257620,0,2,65,670,3.78,Not Disclosed,49390,650,Garden,Downtown Gresham,,860,2001,,97030-3928,N/Av
,50.00,50.00,,,"Air Conditioning, Controlled Access, Laundry Facilities, Property Manager on Site, Storage Space, Maintenance on site, Window Coverings",1.54,1487,965,C,,Portland,6.24,"Air Conditioning, Controlled Access, Laundry Facilities, Property Manager on Site, Storage Space, Maintenance on site, Window Coverings",,2.15,45.5482990,,-122.4934950,0,2,48,,1.71,Not Disclosed,51008,,Garden,Wilkes-Hemlock,990,940,2005,,97230,"R2, Portland"
49.59,27.27,19.83,0.0331,,"Air Conditioning, Fitness Center, Property Manager on Site, Package Service, Walking/Biking Trails, Wheelchair Accessible (Rooms)",1.53,1745,1140,B,,Washougal,15.57,"Air Conditioning, Fitness Center, Property Manager on Site, Package Service, Walking/Biking Trails, Wheelchair Accessible (Rooms)",1896,4.2813,45.5930597,,-122.3749373,0,3,121,762,1.27,Not Disclosed,165609,,Garden,Outlying Vancouver,1567,1425,2008,,98671-7591,R1-15
69.03,30.97,,,,"Air Conditioning, Controlled Access, Fitness Center, Property Manager on Site, Security System, Gated, Dry Cleaning Service, Package Service, Storage Space, Elevator, Maintenance on site, Wheelchair Accessible (Rooms)",2.61,2389,915,B,,Portland,0.06,"Air Conditioning, Controlled Access, Fitness Center, Property Manager on Site, Security System, Gated, Dry Cleaning Service, Package Service, Storage Space, Elevator, Maintenance on site, Wheelchair Accessible (Rooms)",,0.49,45.5298476,,-122.6811564,3,10,155,760,0.28,Not Disclosed,185090,,Mid-Rise,Pearl,,1261,2004,,97209,EXD
48.46,20.48,,,31.06,"Air Conditioning, Business Center, Controlled Access, Clubhouse, Concierge, Courtyard, Fitness Center, Laundry Facilities, Picnic Area, Property Manager on Site, Tenant Controlled HVAC, Waterfront, Gated, Video Patrol, Grill, Package Service, Recycling, Smoke Free, Roof Terrace, Storage Space, Bicycle Storage, Car Charging Station, Community-Wide WiFi, Elevator, Lounge, Maintenance on site, Multi Use Room, Sundeck, Vision Impaired Accessible, Grill, Linen Closet, Patio, Recreation Room, Vinyl Flooring, Wheelchair Accessible (Rooms), Window Coverings, Public Transportation, Green Community, Individual Leases Available",2.21,1787,808,B,,Portland,0,"Air Conditioning, Business Center, Controlled Access, Clubhouse, Concierge, Courtyard, Fitness Center, Laundry Facilities, Picnic Area, Property Manager on Site, Tenant Controlled HVAC, Waterfront, Gated, Video Patrol, Grill, Package Service, Recycling, Smoke Free, Roof Terrace, Storage Space, Bicycle Storage, Car Charging Station, Community-Wide WiFi, Elevator, Lounge, Maintenance on site, Multi Use Room, Sundeck, Vision Impaired Accessible, Grill, Linen Closet, Patio, Recreation Room, Vinyl Flooring, Wheelchair Accessible (Rooms), Window Coverings, Public Transportation, Green Community, Individual Leases Available",,1.46,45.4941050,,-122.6714090,5,6,293,809,0.88,Not Disclosed,282840,581,Mid-Rise,South Waterfront,,1151,2009,,97239,CX
31.15,36.07,13.11,,19.67,,1.44,1421,986,C,,Portland,0.98,,,1.52,45.5434444,,-122.6611056,0,4,61,775,,Not Disclosed,81070,591,Mid-Rise,North Eliot,1350,1250,2000,,97212-3060,R2
25.81,25.81,22.58,,25.81,"Air Conditioning, Workshop",1.82,1756,963,B,,Portland,0.98,"Air Conditioning, Workshop",,1.5209,45.5434674,,-122.6610046,0,4,31,750,,Not Disclosed,89070,550,Mid-Rise,North Eliot,1350,1250,2000,,97212,R2
19.79,55.12,16.61,,8.48,"Air Conditioning, Business Center, Clubhouse, Fitness Center, Laundry Facilities, Picnic Area, Playground, Property Manager on Site, Spa, Basketball Court, Gameroom, Laundry Service, Pet Play Area, Pantry, Smoke Free, Wheelchair Accessible (Rooms)",1.94,1760,908,B,,Molalla,,"Air Conditioning, Business Center, Clubhouse, Fitness Center, Laundry Facilities, Picnic Area, Playground, Property Manager on Site, Spa, Basketball Court, Gameroom, Laundry Service, Pet Play Area, Pantry, Smoke Free, Wheelchair Accessible (Rooms)",,13.5683,45.1485644,,-122.5923262,0,2,283,727,,Not Disclosed,170920,549,Garden,Outlying Clackamas County,1304,909,2009,,97038-8862,C2
67.10,13.85,,,19.05,"Air Conditioning, Business Center, Controlled Access, Clubhouse, Fitness Center, Property Manager on Site, Gated, Grill, Guest Apartment, Media Center/Movie Theatre, On-Site Retail, Storage Space, Bicycle Storage, Conference Rooms, Elevator, Lounge, Dock, Garden, Loft Layout, Patio, Wheelchair Accessible (Rooms)",2.96,2298,775,A,,Portland,0.05,"Air Conditioning, Business Center, Controlled Access, Clubhouse, Fitness Center, Property Manager on Site, Gated, Grill, Guest Apartment, Media Center/Movie Theatre, On-Site Retail, Storage Space, Bicycle Storage, Conference Rooms, Elevator, Lounge, Dock, Garden, Loft Layout, Patio, Wheelchair Accessible (Rooms)",,0.92,45.5302541,LEED Interiors - Gold,-122.6837679,2,16,231,750,,Not Disclosed,330000,623,Hi-Rise,Pearl,,1108,2008,,97209-3165,EX
51.23,27.05,,,21.72,"24 Hour Access, Air Conditioning, Controlled Access, Courtyard, Fitness Center, Laundry Facilities, Picnic Area, Property Manager on Site, Spa, Tanning Salon, Grill, Laundry Service, Recycling, Renters Insurance Program, Walking/Biking Trails, Bicycle Storage, Car Charging Station, Elevator, Maintenance on site, Online Services, Pet Care, Wheelchair Accessible (Rooms), Public Transportation",2.56,2690,1049,A,,Portland,0.04,"24 Hour Access, Air Conditioning, Controlled Access, Courtyard, Fitness Center, Laundry Facilities, Picnic Area, Property Manager on Site, Spa, Tanning Salon, Grill, Laundry Service, Recycling, Renters Insurance Program, Walking/Biking Trails, Bicycle Storage, Car Charging Station, Elevator, Maintenance on site, Online Services, Pet Care, Wheelchair Accessible (Rooms), Public Transportation",,0.9183,45.5311500,,-122.6839290,3,15,244,939,0.32,Not Disclosed,456760,632,Hi-Rise,Pearl,,1595,2008,,97209-2804,"EXd, Portland"
47.50,21.88,,,30.63,"24 Hour Access, Air Conditioning, Controlled Access, Clubhouse, Courtyard, Fitness Center, Picnic Area, Property Manager on Site, Grill, Package Service, Storage Space, Bicycle Storage, Elevator, Lounge, Maintenance on site, Sundeck, Patio",2.13,1708,803,A,,Portland,0.11,"24 Hour Access, Air Conditioning, Controlled Access, Clubhouse, Courtyard, Fitness Center, Picnic Area, Property Manager on Site, Grill, Package Service, Storage Space, Bicycle Storage, Elevator, Lounge, Maintenance on site, Sundeck, Patio",,0.79,45.5303290,,-122.6861982,2,6,160,794,1.07,Not Disclosed,181748,573,Mid-Rise,Pearl,,1147,2009,,97209-2898,EX
61.08,23.24,,,15.68,"Air Conditioning, Business Center, Controlled Access, Courtyard, Fitness Center, Picnic Area, Pool, Spa, Gameroom, Grill, Package Service, Pet Play Area, Roof Terrace, Storage Space, Community-Wide WiFi, Elevator, Online Services, Pet Care, Pet Washing Station, Sundeck, Freezer, Smoke Free, Wheelchair Accessible (Rooms)",2.44,1811,743,B,,Portland,0.2,"Air Conditioning, Business Center, Controlled Access, Courtyard, Fitness Center, Picnic Area, Pool, Spa, Gameroom, Grill, Package Service, Pet Play Area, Roof Terrace, Storage Space, Community-Wide WiFi, Elevator, Online Services, Pet Care, Pet Washing Station, Sundeck, Freezer, Smoke Free, Wheelchair Accessible (Rooms)",,0.98,45.5319059,,-122.6623982,4,8,185,690,0.02,Not Disclosed,288768,523,Mid-Rise,Lloyd District,,1031,2004,,97232,"CX/RX, Portland"
25.00,75.00,,,,"Air Conditioning, Business Center, Clubhouse, Fitness Center, Laundry Facilities, Pool, Spa, Energy Star Labeled, Grill, Planned Social Activities, Wheelchair Accessible (Rooms)",2.20,2101,956,A,,Portland,5.91,"Air Conditioning, Business Center, Clubhouse, Fitness Center, Laundry Facilities, Pool, Spa, Energy Star Labeled, Grill, Planned Social Activities, Wheelchair Accessible (Rooms)",,8.21,45.5375272,,-122.7767752,0,4,160,709,1.04,Not Disclosed,149216,,Mid-Rise,Northwest Heights,,1038,2004,,97229-4147,R2
73.40,22.34,,,4.26,"24 Hour Access, Air Conditioning, Controlled Access, Fitness Center, Laundry Facilities, Security System, Furnished Units Available, Gameroom, Grill, Media Center/Movie Theatre, Storage Space, Bicycle Storage, Lounge, Freezer",2.55,1964,769,A,,Portland,0.51,"24 Hour Access, Air Conditioning, Controlled Access, Fitness Center, Laundry Facilities, Security System, Furnished Units Available, Gameroom, Grill, Media Center/Movie Theatre, Storage Space, Bicycle Storage, Lounge, Freezer",,1.44,45.5504407,LEED Interiors - Gold,-122.6752162,2,6,188,715,0.69,Not Disclosed,144730,581,Mid-Rise,Boise,,986,2008,,97227-1273,M3 M3B
18.67,65.33,,,16.00,"24 Hour Access, Air Conditioning, Business Center, Controlled Access, Clubhouse, Fitness Center, Pool, Property Manager on Site, Spa, Gated, Gameroom, Walking/Biking Trails, Maintenance on site, Online Services, Breakfast Nook, Pantry, Patio, Wheelchair Accessible (Rooms), Window Coverings",1.80,1644,912,B,,Gresham,0.38,"24 Hour Access, Air Conditioning, Business Center, Controlled Access, Clubhouse, Fitness Center, Pool, Property Manager on Site, Spa, Gated, Gameroom, Walking/Biking Trails, Maintenance on site, Online Services, Breakfast Nook, Pantry, Patio, Wheelchair Accessible (Rooms), Window Coverings",,10.1691,45.5167590,,-122.4546750,0,2,225,777,1.28,Not Disclosed,258572,559,Garden,Gresham-North Central,,1038,2004,,97030,CMF
52.13,37.68,10.19,,,"24 Hour Access, Air Conditioning, Business Center, Controlled Access, Clubhouse, Courtyard, Fitness Center, Picnic Area, Playground, Pool, Property Manager on Site, Spa, Breakfast/Coffee Concierge, Grill, Media Center/Movie Theatre, On-Site Retail, Package Service, Planned Social Activities, Recycling, Renters Insurance Program, Trash Pickup - Door to Door, Walking/Biking Trails, Storage Space, Bicycle Storage, Community-Wide WiFi, Lounge, Maintenance on site, Dining Room, Framed Mirrors, Freezer, Garden, Lawn, Linen Closet, Pantry, Patio, Vinyl Flooring, Window Coverings, Public Transportation, Key Fob Entry",2.23,2111,945,A,,Hillsboro,0.29,"24 Hour Access, Air Conditioning, Business Center, Controlled Access, Clubhouse, Courtyard, Fitness Center, Picnic Area, Playground, Pool, Property Manager on Site, Spa, Breakfast/Coffee Concierge, Grill, Media Center/Movie Theatre, On-Site Retail, Package Service, Planned Social Activities, Recycling, Renters Insurance Program, Trash Pickup - Door to Door, Walking/Biking Trails, Storage Space, Bicycle Storage, Community-Wide WiFi, Lounge, Maintenance on site, Dining Room, Framed Mirrors, Freezer, Garden, Lawn, Linen Closet, Pantry, Patio, Vinyl Flooring, Window Coverings, Public Transportation, Key Fob Entry",,14.98,45.5336722,,-122.9170954,0,3,422,714,3.00,Not Disclosed,400405,,Garden,Orenco Station,1418,1138,2007,,97124-4472,SCR-V
58.06,33.87,,,8.06,"Air Conditioning, Wheelchair Accessible (Rooms)",1.82,1503,823,C,,Fairview,11.09,"Air Conditioning, Wheelchair Accessible (Rooms)",,1.5537,45.5314910,,-122.4410660,0,3,62,775,1.26,Not Disclosed,52405,489,Low-Rise,Outlying Troutdale/Gresham,,986,2004,,97024-3855,"MUC1, Fairview"
25.90,25.00,,,49.10,"Air Conditioning, Controlled Access, Clubhouse, Fitness Center, Picnic Area, Gated, Breakfast/Coffee Concierge, Grill, Elevator, Wheelchair Accessible (Rooms)",2.62,2024,771,A,,Portland,0.11,"Air Conditioning, Controlled Access, Clubhouse, Fitness Center, Picnic Area, Gated, Breakfast/Coffee Concierge, Grill, Elevator, Wheelchair Accessible (Rooms)",,0.7164,45.5152760,LEED Interiors - Gold,-122.6823640,3,21,332,782,,Not Disclosed,310000,572,Hi-Rise,Park Blocks,,1155,2009,,97201,RX
13.95,67.44,18.60,,,"Air Conditioning, Business Center, Clubhouse, Fitness Center, Picnic Area, Playground, Deck, Patio, Wheelchair Accessible (Rooms)",1.36,1303,956,B,,Canby,9.58,"Air Conditioning, Business Center, Clubhouse, Fitness Center, Picnic Area, Playground, Deck, Patio, Wheelchair Accessible (Rooms)",,4.3768,45.2773010,,-122.6806977,0,2,86,725,,Not Disclosed,82274,,Garden,Canby,1127,958,2003,,97013-4452,"R1, Canby"
15.38,76.92,7.69,,,"Air Conditioning, Pool, Spa, Wheelchair Accessible (Rooms)",1.64,1481,902,B,,Gresham,11.33,"Air Conditioning, Pool, Spa, Wheelchair Accessible (Rooms)",,5.5059,45.4875776,,-122.4667558,0,3,78,726,2.26,Not Disclosed,71728,,Garden,Gresham-Southwest,1160,913,2002,,97080,MDR-24
,100.00,,,,"Air Conditioning, Wheelchair Accessible (Rooms)",1.32,1127,852,B,,Portland,9.25,"Air Conditioning, Wheelchair Accessible (Rooms)",,0.73,45.4965292,,-122.5426275,0,2,28,,2.25,Not Disclosed,22716,,Low-Rise,Powellhurst-Gilbert,,852,2004,,97266-1634,"R7, Portland"
,,100.00,,,"Air Conditioning, Yard, Wheelchair Accessible (Rooms), Public Transportation",1.16,1860,1600,B,,Portland,9.22,"Air Conditioning, Yard, Wheelchair Accessible (Rooms), Public Transportation",,0.9361,45.4979937,,-122.5079317,0,3,20,,1.47,Not Disclosed,31000,,Townhome,Centennial,1600,,2007,,97236-2495,R3
,50.00,50.00,,,"Playground, Property Manager on Site, Maintenance on site, Patio, Wheelchair Accessible (Rooms)",1.51,1554,1032,C,,Gresham,11.52,"Playground, Property Manager on Site, Maintenance on site, Patio, Wheelchair Accessible (Rooms)",,2.44,45.4937993,,-122.4620809,0,3,56,,,Not Disclosed,76906,,Garden,Holly Brook,1083,981,2007,,97030-6442,"CMF, Gresham"
37.84,51.35,10.81,,,"Air Conditioning, Clubhouse, Fitness Center, Laundry Facilities, Playground, Property Manager on Site, Spa, Package Service, Storage Space, Lounge, Maintenance on site, Sundeck, Dining Room, Vinyl Flooring, Window Coverings",1.83,1699,927,A,,Gresham,13.37,"Air Conditioning, Clubhouse, Fitness Center, Laundry Facilities, Playground, Property Manager on Site, Spa, Package Service, Storage Space, Lounge, Maintenance on site, Sundeck, Dining Room, Vinyl Flooring, Window Coverings",,9.0909,45.4905290,,-122.3983850,0,3,222,740,0.92,Not Disclosed,285057,,Garden,Kelly Creek,1161,1016,2004,,97080-1606,MDR-24
,80.00,,,20.00,"Air Conditioning, Breakfast/Coffee Concierge, Elevator, Wheelchair Accessible (Rooms)",2.02,2035,1006,B,,Portland,0.22,"Air Conditioning, Breakfast/Coffee Concierge, Elevator, Wheelchair Accessible (Rooms)",,0.11,45.5336570,,-122.6909260,0,6,20,,,Not Disclosed,35000,675,Mid-Rise,Uptown Portland,,1089,2007,,97209,M2
50.00,50.00,,,,"Air Conditioning, Property Manager on Site, Recycling, Storage Space, Patio, Wheelchair Accessible (Rooms)",1.62,1420,875,B,,Portland,0.61,"Air Conditioning, Property Manager on Site, Recycling, Storage Space, Patio, Wheelchair Accessible (Rooms)",,0.573921,45.4966830,,-122.5769030,0,3,30,750,,Not Disclosed,25380,,Low-Rise,Lents,,1000,2009,,97266,R1
81.82,18.18,,,,"Controlled Access, Storage Space, Elevator, Sundeck, Double Pane Windows",1.50,1174,784,B,,Gresham,0.34,"Controlled Access, Storage Space, Elevator, Sundeck, Double Pane Windows",,0.28,45.4997360,,-122.4293730,0,4,22,747,0.84,Not Disclosed,21380,,Mid-Rise,Downtown Gresham,,950,2006,,97030-7462,CUC
,,,,,"Air Conditioning, Wheelchair Accessible (Rooms)",,,,B,,Vancouver,12.48,"Air Conditioning, Wheelchair Accessible (Rooms)",,0.1206,45.6409555,,-122.6319935,0,3,20,,,Not Disclosed,39102,,Garden,Fourth Plain Village,,,2006,,98661,C3
21.28,65.96,12.77,,,"Air Conditioning, Clubhouse, Fitness Center, Playground, Spa, Tennis Court, Gated, Putting Greens, Wheelchair Accessible (Rooms)",1.93,2409,1249,A,,West Linn,8.23,"Air Conditioning, Clubhouse, Fitness Center, Playground, Spa, Tennis Court, Gated, Putting Greens, Wheelchair Accessible (Rooms)",,8.4957,45.3534757,,-122.6587183,0,3,94,807,2.30,Not Disclosed,130000,,Garden,Willamette,1575,1329,2000,2005,97068,R2.1
,,,,,,,,,C,,Portland,0.32,,,1.95,45.5187860,,-122.4882170,0,2,48,,,Not Disclosed,48984,,Garden,Centennial,,,2001,,97233-4246,CMU
17.69,75.38,6.92,,,"Air Conditioning, Clubhouse, Fitness Center, Laundry Facilities, Picnic Area, Playground, Pool, Property Manager on Site, Sauna, Spa, Grill, Package Service, Recycling, Storage Space, Lounge, Maintenance on site, Sundeck, Dining Room, Vinyl Flooring, Window Coverings",1.87,1678,899,B,,Gresham,0.63,"Air Conditioning, Clubhouse, Fitness Center, Laundry Facilities, Picnic Area, Playground, Pool, Property Manager on Site, Sauna, Spa, Grill, Package Service, Recycling, Storage Space, Lounge, Maintenance on site, Sundeck, Dining Room, Vinyl Flooring, Window Coverings",,5.26,45.5196930,,-122.4531010,0,3,130,729,1.78,Not Disclosed,117837,,Garden,Gresham-North Central,1165,915,2004,,97030,CMU
84.00,5.33,,,10.67,"Air Conditioning, Clubhouse, Picnic Area, Basketball Court, Recycling, Wheelchair Accessible (Rooms)",1.93,1454,751,B,,Gresham,12.44,"Air Conditioning, Clubhouse, Picnic Area, Basketball Court, Recycling, Wheelchair Accessible (Rooms)",,1.65,45.5186770,,-122.4291700,0,2,75,763,1.88,Not Disclosed,55988,479,Low-Rise,Gresham-North Central,,1120,2004,,97030-2653,"OFA, Gresham"
33.99,55.53,9.68,0.0079,,"Air Conditioning, Business Center, Clubhouse, Fitness Center, Laundry Facilities, Property Manager on Site, Spa, Furnished Units Available, Grill, Package Service, Storage Space, Maintenance on site, Sundeck, Linen Closet, Window Coverings",1.89,1895,1002,B,,Portland,0.78,"Air Conditioning, Business Center, Clubhouse, Fitness Center, Laundry Facilities, Property Manager on Site, Spa, Furnished Units Available, Grill, Package Service, Storage Space, Maintenance on site, Sundeck, Linen Closet, Window Coverings",1389,12.26,45.5156530,,-122.7861400,0,3,506,790,0.98,Not Disclosed,560788,,Garden,Cedar Hills-Cedar Mill,1368,1063,2005,,97225,SFR5
,45.00,,,55.00,"Air Conditioning, Wheelchair Accessible (Rooms)",,,699,B,,Portland,0.67,"Air Conditioning, Wheelchair Accessible (Rooms)",,0.0977,45.5365308,,-122.7039341,0,4,20,,,Not Disclosed,6756,495,Mid-Rise,Uptown Portland,,949,2004,,97210-3768,CS
36.13,52.55,9.12,,2.19,"Air Conditioning, Controlled Access, Clubhouse, Fitness Center, Laundry Facilities, Playground, Property Manager on Site, Spa, Basketball Court, Furnished Units Available, Recycling, Volleyball Court, Elevator, Maintenance on site, Window Coverings",1.94,1882,972,B,,Wilsonville,1.2,"Air Conditioning, Controlled Access, Clubhouse, Fitness Center, Laundry Facilities, Playground, Property Manager on Site, Spa, Basketball Court, Furnished Units Available, Recycling, Volleyball Court, Elevator, Maintenance on site, Window Coverings",,6.1423,45.3109638,,-122.7943695,1,4,274,813,0.89,Not Disclosed,266243,527,Mid-Rise,Wilsonville,1416,1022,2008,,97070,PF
22.00,34.00,30.00,0.14,,"Laundry Facilities, Playground, Tenant Controlled HVAC, Laundry Service",0.77,763,989,C,,Portland,11.8,"Laundry Facilities, Playground, Tenant Controlled HVAC, Laundry Service",1436,1.388,45.4964180,,-122.6371528,0,4,50,604,,Not Disclosed,49858,,Mid-Rise,Creston-Kenilworth,1290,787,2005,,97202-3089,CG
,,100.00,,,"Air Conditioning, Patio",,,1424,B,,Gresham,12.9,"Air Conditioning, Patio",,1.5,45.4872235,,-122.4168641,0,2,20,,0.66,Not Disclosed,37356,,Garden,Mt Hood,1424,,2005,,97080-1077,MDR-24
