% 1-Bed,% 2-Bed,% 3-Bed,% 4-Bed,% Studios,Amenities,Avg Effective/SF,Avg Effective/Unit,Avg Unit SF,Building Class,Ceiling Ht,City,Closest Transit Stop Dist (mi),Features,Four Bedroom Avg SF,Land Area (AC),Latitude,LEED Certified,Longitude,Number Of Elevators,Number Of Stories,Number Of Units,One Bedroom Avg SF,Parking Ratio,Rent/SF/Yr,RBA,Studio Avg SF,Style,Submarket Name,Three Bedroom Avg SF,Two Bedroom Avg SF,Year Built,Year Renovated,Zip,Zoning
3.13,96.88,,,,"Laundry Facilities, Pool, Gated, Sundeck, Deck, Patio",,,985,,,Portland,11.04,"Laundry Facilities, Pool, Gated, Sundeck, Deck, Patio",,0.88,45.4964179,,-122.6220834,0,2,32,650,1.01,Not Disclosed,31550,,Low-Rise,Creston-Kenilworth,,997,1961,,97202,
51.95,17.53,0.65,,29.87,"Business Center, Controlled Access, Clubhouse, Fitness Center, Laundry Facilities, Corporate Suites, Gated, Laundry Service, Maid Service, Package Service, Trash Pickup - Door to Door, Storage Space, Elevator, Lounge, Online Services, Sundeck",2.59,1414,546,B,,Portland,0.09,"Business Center, Controlled Access, Clubhouse, Fitness Center, Laundry Facilities, Corporate Suites, Gated, Laundry Service, Maid Service, Package Service, Trash Pickup - Door to Door, Storage Space, Elevator, Lounge, Online Services, Sundeck",,0.9183,45.5128574,,-122.6854494,4,15,308,552,0.56,Not Disclosed,262980,387,Hi-Rise,Arts District,1664,758,1951,,97201,"AXZ, Portland"
65.06,24.10,,,10.84,"Courtyard, Laundry Facilities, Pool, Car Wash Area, Pet Play Area",1.94,1411,727,C,,Portland,6.3,"Courtyard, Laundry Facilities, Pool, Car Wash Area, Pet Play Area",,2.84,45.5347291,,-122.5465331,0,2,83,718,1.00,Not Disclosed,84102,336,Low-Rise,Parkrose Heights,,930,1962,,97220,R1
73.02,26.98,,,,"Courtyard, Laundry Facilities",1.57,1092,695,C,,Newberg,31.57,"Courtyard, Laundry Facilities",,,45.2998510,,-122.9557960,0,1,63,667,1.71,Not Disclosed,46822,,Garden,Yamhill County,,769,1968,,97132,R3
59.15,33.80,,,7.04,"Courtyard, Fitness Center, Laundry Facilities, Playground, Property Manager on Site, Waterfront, Laundry Service, Walking/Biking Trails, Bicycle Storage",1.97,1460,741,B,,Lake Oswego,6.56,"Courtyard, Fitness Center, Laundry Facilities, Playground, Property Manager on Site, Waterfront, Laundry Service, Walking/Biking Trails, Bicycle Storage",,1.72,45.4174480,,-122.6664060,0,3,71,718,1.19,Not Disclosed,36232,400,Garden,Evergreen,,855,1955,2015,97034,"R0EC, Lake Oswego"
,97.14,2.86,,,"Property Manager on Site, Grill, Recycling, Patio",0.89,995,1123,B,,Canby,8.49,"Property Manager on Site, Grill, Recycling, Patio",,1.6023,45.2661467,,-122.6933519,0,2,35,,,Not Disclosed,40716,,Garden,Canby,1220,1120,1968,,97013,R2
,94.12,5.88,,,,1.18,1350,1142,B,,Scappoose,26.31,,,0.2594,45.7540567,,-122.8827322,0,2,51,,,Not Disclosed,60250,,Garden,Columbia County,1350,1129,1960,,97056-3555,A1
50.00,37.50,12.50,,,Laundry Facilities,1.35,820,606,C,,Vancouver,12.24,Laundry Facilities,,0.8507,45.6378070,,-122.6320540,0,2,32,475,1.25,Not Disclosed,19400,,Low-Rise,Fourth Plain Village,850,700,1968,,98661-5740,"MD, Vancouver"
,100.00,,,,Laundry Facilities,1.27,953,750,C,,Washougal,14.85,Laundry Facilities,,0.94,45.5826930,,-122.3681720,0,2,25,,2.19,Not Disclosed,35000,,Low-Rise,Downtown Washougal,,750,1969,,98671,C1
50.00,50.00,,,,Laundry Facilities,0.85,682,800,C,,Vancouver,9.81,Laundry Facilities,,1,45.6242520,,-122.6410360,0,2,22,700,1.18,Not Disclosed,17600,,Low-Rise,Hudson's Bay,,900,1958,,98661-4908,"MG, Vancouver"
,100.00,,,,"Air Conditioning, Laundry Facilities, Property Manager on Site, Maintenance on site, Freezer, Public Transportation",1.25,1189,954,C,,Beaverton,0.71,"Air Conditioning, Laundry Facilities, Property Manager on Site, Maintenance on site, Freezer, Public Transportation",,0.9776,45.4820300,,-122.7993810,0,2,22,,1.32,Not Disclosed,16876,,Garden,Vose,,955,1967,,97005,"R2, Beaverton"
66.67,33.33,,,,Laundry Facilities,1.02,612,600,C,,Vancouver,10.06,Laundry Facilities,,1.11,45.6269870,,-122.6467300,0,2,24,550,1.08,Not Disclosed,31420,,Garden,Hudson's Bay,,700,1968,,98661-4306,MD
,,,,,"Air Conditioning, Clubhouse, Courtyard",,,,C,,Oregon City,19.1,"Air Conditioning, Clubhouse, Courtyard",,0.53,45.3540290,,-122.5950310,0,2,30,,,Not Disclosed,29892,,Low-Rise,McLoughlin,,,1962,,97045,R3.5
,90.63,3.13,0.0625,,"Laundry Facilities, Smoke Free, Wheelchair Accessible (Rooms)",1.36,1280,940,B,,Newberg,32.55,"Laundry Facilities, Smoke Free, Wheelchair Accessible (Rooms)",1176,1.46,45.2922490,,-122.9736680,0,2,32,,0.67,Not Disclosed,29845,,Garden,Yamhill County,1050,920,1962,2007,97132,R3
57.47,5.75,,,36.78,"Air Conditioning, Controlled Access, Clubhouse, Laundry Facilities, Laundry Service, Wi-Fi",2.61,1295,495,C,,Portland,0.5,"Air Conditioning, Controlled Access, Clubhouse, Laundry Facilities, Laundry Service, Wi-Fi",,2.2,45.5007960,,-122.6896900,0,2,87,542,0.94,Not Disclosed,43589,398,Garden,Homestead-Council Crest,,653,1950,,97239-3057,"R1, Portland"
15.38,52.88,31.73,,,"Business Center, Clubhouse, Laundry Facilities, Pool, Property Manager on Site, Sauna, Laundry Service, Yard, Patio",1.67,1356,812,C,,Vancouver,8.17,"Business Center, Clubhouse, Laundry Facilities, Pool, Property Manager on Site, Sauna, Laundry Service, Yard, Patio",,7.08,45.6302530,,-122.5901864,0,1,104,600,3.04,Not Disclosed,82340,,Garden,North Garrison Heights,954,789,1965,,98664,R18; Vancouver
56.41,43.59,,,,"Fitness Center, Playground, Deck, Patio",1.58,1049,666,C,,Portland,0.48,"Fitness Center, Playground, Deck, Patio",,0.9183,45.5001190,,-122.6924190,0,2,39,620,1.56,Not Disclosed,25560,,Low-Rise,Homestead-Council Crest,,725,1967,,97239-3000,N/Av
40.82,40.82,,,18.37,"Air Conditioning, Courtyard, Laundry Facilities, Video Patrol",1.78,1135,636,C,,Vancouver,11.88,"Air Conditioning, Courtyard, Laundry Facilities, Video Patrol",,0.45,45.6314341,,-122.6667991,0,2,49,600,1.02,Not Disclosed,27000,350,Low-Rise,Downtown Vancouver,,800,1957,,98660-3297,"C, Vancouver"
33.33,66.67,,,,,0.80,734,913,C,,Vancouver,14.2,,,1.44,45.6808760,,-122.6583920,0,2,24,602,1.96,Not Disclosed,21904,,Garden,Northeast Hazel Dell,,1068,1968,,98665-9642,"R-43, Vancouver"
100.00,,,,,Laundry Facilities,1.76,1056,600,C,,Portland,0.54,Laundry Facilities,,1.42,45.5003120,,-122.6935100,0,2,25,600,1.39,Not Disclosed,15800,,Low-Rise,Homestead-Council Crest,,,1961,,97239-3071,"R7, Portland"
100.00,,,,,"Laundry Facilities, Vinyl Flooring",,,500,C,,Oregon City,18.6,"Laundry Facilities, Vinyl Flooring",,0.6,45.3608588,,-122.5960302,0,3,20,500,0.00,Not Disclosed,11600,,Low-Rise,McLoughlin,,,1966,,97045,R2
4.00,92.00,,0.04,,"Laundry Facilities, Property Manager on Site, Security System",1.61,1332,828,C,,Vancouver,14.53,"Laundry Facilities, Property Manager on Site, Security System",1500,1.5,45.6869286,,-122.6572218,0,1,25,700,1.82,Not Disclosed,21868,,Garden,Northeast Hazel Dell,,804,1969,,98665-9034,MH
100.00,,,,,Laundry Facilities,2.17,1085,500,C,,Portland,0.74,Laundry Facilities,,0.23,45.5240810,,-122.6483330,0,2,22,500,,Not Disclosed,12290,,Low-Rise,Kerns,,,1960,,97232,RH
45.45,54.55,,,,"24 Hour Access, Laundry Facilities, Property Manager on Site, Maintenance on site, Patio, Public Transportation",1.65,1429,865,C,,Portland,0.73,"24 Hour Access, Laundry Facilities, Property Manager on Site, Maintenance on site, Patio, Public Transportation",,0.52,45.5367710,,-122.6478760,0,2,22,705,0.76,Not Disclosed,24704,,Low-Rise,Irvington,,998,1967,,97212,R1R1A
24.00,76.00,,,,,1.57,1230,794,C,,Portland,11.34,,,0.826,45.4796620,,-122.6479780,0,2,23,597,1.00,Not Disclosed,20498,,Low-Rise,Sellwood-Moreland,,852,1964,,97202-5211,"R1, Portland"
100.00,,,,,"Laundry Facilities, Smoke Free",0.97,726,750,C,,Forest Grove,33.03,"Laundry Facilities, Smoke Free",,0.4621,45.5180081,,-123.1077226,0,2,20,750,,Not Disclosed,15000,,Low-Rise,Outlying Washington County,,,1964,,97116-2376,N/Av
4.76,95.24,,,,"24 Hour Access, Laundry Facilities, Breakfast/Coffee Concierge, Storage Space, Breakfast Nook, Deck, Double Pane Windows",1.19,1380,1162,C,,Portland,5.16,"24 Hour Access, Laundry Facilities, Breakfast/Coffee Concierge, Storage Space, Breakfast Nook, Deck, Double Pane Windows",,1.14,45.4670030,,-122.6982870,0,3,21,400,2.88,Not Disclosed,20850,,Garden,Hillsdale,,1200,1963,,97219-2764,"R2, Portland"
100.00,,,,,,1.81,1597,882,C,,Portland,0.26,,,0.3444,45.5243510,,-122.6920000,0,4,32,882,,Not Disclosed,30452,,Mid-Rise,Uptown Portland,,,1965,,97209-1953,RH
,100.00,,,,,1.56,1246,800,C,,Gresham,0.56,,,3,45.5112750,,-122.4318730,0,1,40,,0.27,Not Disclosed,32512,,Low-Rise,Gresham-North Central,,800,1967,,97030-2737,N/Av
35.21,64.79,,,,"Air Conditioning, Laundry Facilities",1.54,1081,704,B,,Forest Grove,39.33,"Air Conditioning, Laundry Facilities",,4.1,45.5219910,,-123.1011060,0,1,69,620,1.64,Not Disclosed,48000,,Garden,Outlying Washington County,,750,1963,,97116-1788,"A2, Forest Grove"
100.00,,,,,"Controlled Access, Laundry Facilities, Property Manager on Site, Gated, Dining Room, Patio, Smoke Free, Wheelchair Accessible (Rooms)",1.97,1287,652,B,,Portland,0.71,"Controlled Access, Laundry Facilities, Property Manager on Site, Gated, Dining Room, Patio, Smoke Free, Wheelchair Accessible (Rooms)",,0.287,45.5341100,,-122.6444298,0,6,44,652,,Not Disclosed,34300,,Mid-Rise,Sullivan's Gulch,,,1961,,97232-1566,R2.5
19.89,19.89,40.32,,19.89,"Air Conditioning, Controlled Access, Fitness Center, Laundry Facilities, Picnic Area, Property Manager on Site, Grill, Guest Apartment, Package Service, Storage Space, Elevator, Maintenance on site, Sundeck, Dining Room, Window Coverings",2.00,2380,1203,B,,Portland,0.26,"Air Conditioning, Controlled Access, Fitness Center, Laundry Facilities, Picnic Area, Property Manager on Site, Grill, Guest Apartment, Package Service, Storage Space, Elevator, Maintenance on site, Sundeck, Dining Room, Window Coverings",,1.27,45.5211655,,-122.6937546,4,12,186,722,1.07,Not Disclosed,149385,350,Mid-Rise,Goose Hollow,1800,1370,1951,,97205-1562,N/Av
60.00,,,,40.00,"Controlled Access, Laundry Facilities, Property Manager on Site, Grill, Recycling, Trash Pickup - Door to Door, Bicycle Storage, Elevator, Linen Closet, Smoke Free",2.58,1284,497,C,,Portland,0.33,"Controlled Access, Laundry Facilities, Property Manager on Site, Grill, Recycling, Trash Pickup - Door to Door, Bicycle Storage, Elevator, Linen Closet, Smoke Free",,0.59,45.5293343,,-122.7034157,0,5,70,584,,Not Disclosed,45790,369,Mid-Rise,Hillside,,,1950,,97210-2872,RM3
29.41,52.94,5.88,,11.76,"Laundry Facilities, Picnic Area, Trash Pickup - Curbside, Patio, Smoke Free",1.81,1199,662,C,,Portland,16.42,"Laundry Facilities, Picnic Area, Trash Pickup - Curbside, Patio, Smoke Free",,2.24,45.4371592,,-122.6364507,0,3,51,590,,Not Disclosed,39958,300,Low-Rise,Lake Road,1050,740,1963,,97222-7280,R2
100.00,,,,,"Courtyard, Laundry Facilities, Picnic Area, Pool, Waterfront, Gated, Laundry Service, Dining Room",2.06,1223,595,C,,Portland,5.17,"Courtyard, Laundry Facilities, Picnic Area, Pool, Waterfront, Gated, Laundry Service, Dining Room",,3.08,45.4751300,,-122.7033920,0,2,53,595,1.51,Not Disclosed,34544,,Garden,Hillsdale,,,1966,,97219-1943,"R2, Portland"
63.64,36.36,,,,"Air Conditioning, Laundry Facilities, Property Manager on Site, Grill, Patio",1.63,1129,686,C,,Milwaukie,15.57,"Air Conditioning, Laundry Facilities, Property Manager on Site, Grill, Patio",,0.6651,45.4418660,,-122.6356240,0,2,29,686,,Not Disclosed,18850,,Low-Rise,Historic Milwaukie,,700,1962,,97222-7772,R2
82.76,,,,17.24,"Laundry Facilities, Patio, Smoke Free",1.98,1134,572,C,,Portland,16.44,"Laundry Facilities, Patio, Smoke Free",,0.6918,45.4409140,,-122.6355940,0,3,29,580,0.28,Not Disclosed,52434,532,Garden,Historic Milwaukie,,,1962,,97222,R2
100.00,,,,,,,,684,C,,Portland,0.61,,,0.459,45.5333960,,-122.7093220,0,2,20,684,1.00,Not Disclosed,15876,,Low-Rise,Uptown Portland,,,1968,,97210-2480,"R2, Portland"
48.94,48.94,2.13,,,"Laundry Facilities, Walking/Biking Trails, Deck, Patio, Smoke Free",2.41,1389,576,C,,Portland,0.95,"Laundry Facilities, Walking/Biking Trails, Deck, Patio, Smoke Free",,1.03,45.5363260,,-122.7122090,0,2,45,485,0.71,Not Disclosed,39382,,Low-Rise,Uptown Portland,860,655,1966,,97210,"R1, Portland"
85.42,,,0.0208,12.50,Laundry Facilities,2.82,1445,513,C,,Portland,8.66,Laundry Facilities,,1.29,45.5030070,,-122.6353060,0,1,46,530,0.96,Not Disclosed,20760,370,Garden,Richmond,,,1952,,97202-1330,R2.5
26.23,49.18,24.59,,,"Clubhouse, Laundry Facilities, Property Manager on Site, Storage Space, Maintenance on site, Multi Use Room, Sundeck, Deck, Patio",1.89,1549,819,C,,Portland,5.09,"Clubhouse, Laundry Facilities, Property Manager on Site, Storage Space, Maintenance on site, Multi Use Room, Sundeck, Deck, Patio",,4.64,45.4777710,,-122.7069920,0,2,61,615,1.34,Not Disclosed,44700,,Garden,Hillsdale,990,843,1966,,97239-1069,N/Av
4.55,4.55,4.55,,86.36,"Fitness Center, Laundry Facilities, Picnic Area, Sauna, Grill, Wi-Fi",,,556,C,,Portland,4.52,"Fitness Center, Laundry Facilities, Picnic Area, Sauna, Grill, Wi-Fi",,0.8873,45.4620570,,-122.7080450,0,2,22,684,1.00,Not Disclosed,19946,495,Low-Rise,Multnomah,1184,949,1967,,97219,R2
57.69,42.31,,,,"Laundry Facilities, Property Manager on Site",1.46,1197,821,C,,Portland,4.43,"Laundry Facilities, Property Manager on Site",,0.63,45.4606054,,-122.7073688,0,3,24,750,1.75,Not Disclosed,16000,,Low-Rise,Multnomah,,920,1969,,97219-8810,CG
91.30,8.70,,,,,1.83,939,512,C,,Portland,11.44,,,2.197,45.4954240,,-122.6272930,0,1,46,500,0.87,Not Disclosed,28122,,Garden,Creston-Kenilworth,,636,1954,,97202-9307,"R2, Portland"
,83.33,16.67,,,"Laundry Facilities, Property Manager on Site, Laundry Service, Patio",1.63,1496,918,C,,Portland,11.2,"Laundry Facilities, Property Manager on Site, Laundry Service, Patio",,0.9091,45.4959250,,-122.6261490,0,2,24,,0.95,Not Disclosed,26264,,Low-Rise,Creston-Kenilworth,1020,897,1968,,97202-1858,
100.00,,,,,"Business Center, Clubhouse, Laundry Facilities, Gameroom, Media Center/Movie Theatre, Planned Social Activities, Recycling, Yard, Storage Space, Multi Use Room, Deck, Dining Room, Double Pane Windows, Garden, Greenhouse, Patio",,,565,C,,Portland,11.51,"Business Center, Clubhouse, Laundry Facilities, Gameroom, Media Center/Movie Theatre, Planned Social Activities, Recycling, Yard, Storage Space, Multi Use Room, Deck, Dining Room, Double Pane Windows, Garden, Greenhouse, Patio",,0.895,45.4916250,,-122.6255810,0,2,32,565,1.13,Not Disclosed,22300,,Low-Rise,Creston-Kenilworth,,,1959,,97202,"R2.5, Portland"
10.59,81.18,8.24,,,"Laundry Facilities, Basketball Court",1.49,1464,981,B,,Portland,4.75,"Laundry Facilities, Basketball Court",,6.0501,45.4849080,,-122.7158340,0,2,85,860,1.36,Not Disclosed,82784,,Garden,Bridlemile,1200,975,1964,,97221-3854,"R2, Portland"
,,,,,"24 Hour Access, Air Conditioning, Courtyard",,,,C,,Portland,11.04,"24 Hour Access, Air Conditioning, Courtyard",,0.8737,45.4962170,,-122.6221870,0,2,32,,0.84,Not Disclosed,27120,,Low-Rise,Creston-Kenilworth,,,1961,,97202,"R1, Portland"
31.43,68.57,,,,"Laundry Facilities, Recycling",1.87,1472,787,C,,Portland,11.3,"Laundry Facilities, Recycling",,0.82,45.4927570,,-122.6231020,0,2,35,650,1.97,Not Disclosed,27568,,Garden,Creston-Kenilworth,,850,1969,,97202,"CN2, Portland"
27.27,59.09,13.64,,,"24 Hour Access, Laundry Facilities, Property Manager on Site, Maintenance on site, Online Services, Public Transportation",1.93,1417,733,C,,Portland,10.98,"24 Hour Access, Laundry Facilities, Property Manager on Site, Maintenance on site, Online Services, Public Transportation",,0.99,45.4965730,,-122.6204580,0,2,44,523,0.00,Not Disclosed,32002,,Low-Rise,Creston-Kenilworth,979,773,1969,,97202-1769,R1
,,,,,,,,,C,,Portland,10.96,,,0.7003,45.4964600,,-122.6215970,0,2,22,,,Not Disclosed,18494,,Low-Rise,Creston-Kenilworth,,,1961,,97202-1708,R1
10.42,83.33,,,6.25,Laundry Facilities,1.45,1267,876,C,,Portland,11,Laundry Facilities,,1.09,45.4958400,,-122.6212680,0,2,48,775,0.73,Not Disclosed,41060,550,Garden,Creston-Kenilworth,,913,1969,,97202,R1
71.43,28.57,,,,,1.44,756,526,C,,Portland,4.63,,,2.57,45.5639512,,-122.6201082,0,2,70,460,1.63,Not Disclosed,48956,,Garden,Cully,,692,1966,,97218-1410,N/Av
,100.00,,,,,1.47,1474,1000,C,,Portland,10.85,,,0.67,45.4968020,,-122.6193230,0,2,20,,1.12,Not Disclosed,21260,,Low-Rise,Creston-Kenilworth,,1000,1965,,97206,R2
,92.31,2.56,,5.13,"Air Conditioning, Courtyard, Laundry Facilities, Laundry Service, Online Services, Deck, Patio",1.44,1317,917,C,,Milwaukie,14.46,"Air Conditioning, Courtyard, Laundry Facilities, Laundry Service, Online Services, Deck, Patio",,1.44,45.4486130,,-122.6171860,0,2,39,,1.08,Not Disclosed,38764,400,Low-Rise,Lewelling,1135,940,1961,,97222,"R3, Milwaukie"
50.00,50.00,,,,"Laundry Facilities, Dining Room, Smoke Free, Vinyl Flooring",1.38,1129,817,C,,Portland,0.55,"Laundry Facilities, Dining Room, Smoke Free, Vinyl Flooring",,0.97,45.5342530,,-122.6147450,0,3,56,684,,Not Disclosed,45114,,Low-Rise,Rose City Park,,949,1961,,97213,R1
60.00,40.00,,,,"Laundry Facilities, Recycling, Smoke Free",1.73,1400,810,C,,Portland,0.5,"Laundry Facilities, Recycling, Smoke Free",,0.77,45.5357180,,-122.6153840,0,2,30,750,,Not Disclosed,27704,,Low-Rise,Hollywood,,900,1969,,97213,R1
,,,,,,,,,C,,Vancouver,13.1,,,1.75,45.6566110,,-122.6347850,0,2,20,,2.90,Not Disclosed,11712,,Low-Rise,Walnut Grove,,,1965,,98661-2554,MD
97.22,2.78,,,,"Laundry Facilities, Pet Play Area, Walking/Biking Trails",0.82,570,691,C,,Portland,8.27,"Laundry Facilities, Pet Play Area, Walking/Biking Trails",,0.804,45.5061400,,-122.6109100,0,2,36,684,0.94,Not Disclosed,25620,,Low-Rise,Mt Tabor,,949,1967,,97215,"R1, Portland"
17.65,70.59,5.88,,5.88,Laundry Facilities,,751,,C,,Portland,8.56,Laundry Facilities,,0.9704,45.5012730,,-122.6113750,0,2,34,,1.12,Not Disclosed,29180,,Low-Rise,Richmond,,,1967,,97206-2200,"R1, Portland"
13.04,86.96,,,,,1.08,1047,973,C,,Vancouver,12,,,2.47,45.6584054,,-122.6242604,0,2,23,500,0.00,Not Disclosed,21700,,Low-Rise,Walnut Grove,,1044,1960,,98661,R1-6
65.79,23.68,,,10.53,"Laundry Facilities, Patio",1.44,920,621,C,,Portland,0.68,"Laundry Facilities, Patio",,0.95,45.5288201,,-122.6081660,0,2,38,607,0.89,Not Disclosed,35704,300,Low-Rise,Rose City Park,,823,1961,,97213-3167,R1
23.08,76.92,,,,Laundry Facilities,1.22,965,790,C,,Portland,0.51,Laundry Facilities,,0.52,45.5299768,,-122.6078874,0,3,26,672,0.67,Not Disclosed,38577,,Low-Rise,Rose City Park,,826,1968,,97213,R1
54.55,45.45,,,,"Courtyard, Laundry Facilities, Storage Space, Deck, Patio",2.27,1286,567,C,,Portland,3.54,"Courtyard, Laundry Facilities, Storage Space, Deck, Patio",,1.483,45.4875610,,-122.7342050,0,2,44,518,1.92,Not Disclosed,24932,,Garden,Bridlemile,,625,1966,,97221-1977,N/Av
25.00,,,,75.00,"Courtyard, Laundry Facilities, Property Manager on Site, Maintenance on site, Patio",2.38,1106,464,C,,Portland,0.84,"Courtyard, Laundry Facilities, Property Manager on Site, Maintenance on site, Patio",,0.96,45.5180130,,-122.6023610,0,2,32,574,,Not Disclosed,21506,428,Low-Rise,Mt Tabor,,,1960,,97215,R1
4.00,4.00,,,92.00,Courtyard,,,622,C,,Portland,0.7,Courtyard,,0.8194,45.5246980,,-122.5952630,0,1,25,750,,Not Disclosed,15550,600,Low-Rise,North Tabor,,1000,1957,,97213-5022,R5
,71.43,28.57,,,"Laundry Facilities, Patio",1.13,1167,1030,C,,Portland,13.22,"Laundry Facilities, Patio",,4.6,45.4484316,,-122.5954811,0,2,56,,,Not Disclosed,93984,,Garden,Southgate,1200,963,1969,,97222,MR1
,100.00,,,,,1.64,1315,800,C,,Tigard,2.02,,,0.9556,45.4425900,,-122.7477170,0,2,21,,1.81,Not Disclosed,16546,,Garden,Tigard Triangle,,800,1967,,97223,N/Av
,100.00,,,,"Courtyard, Fitness Center, Laundry Facilities, Picnic Area, Property Manager on Site, Storage Space, Bicycle Storage, Online Services",2.31,1384,600,C,,Portland,0.64,"Courtyard, Fitness Center, Laundry Facilities, Picnic Area, Property Manager on Site, Storage Space, Bicycle Storage, Online Services",,2.99,45.5370296,,-122.5873038,0,2,68,,1.13,Not Disclosed,57432,,Garden,Madison South,,600,1950,2014,97213,R2
52.17,47.83,,,,Laundry Facilities,1.50,1160,773,C,,Portland,0.97,Laundry Facilities,,0.584,45.5224790,,-122.5811550,0,2,23,749,1.13,Not Disclosed,16495,,Low-Rise,Montavilla,,800,1968,,97215-1570,"CG,  Portland"
,100.00,,,,Laundry Facilities,1.10,1097,1000,C,,Portland,0.99,Laundry Facilities,,0.44,45.4934262,,-122.5815154,0,2,20,,0.82,Not Disclosed,14490,,Low-Rise,Foster-Powell,,1000,1960,,97206,"R2a, Portland"
62.42,21.02,,,16.56,"24 Hour Access, Laundry Facilities, Property Manager on Site, Pet Play Area, Maintenance on site, Online Services, Smoke Free",2.14,1348,630,B,,Clackamas,15.2,"24 Hour Access, Laundry Facilities, Property Manager on Site, Pet Play Area, Maintenance on site, Online Services, Smoke Free",,5.83,45.4014154,,-122.5704659,0,2,157,561,,Not Disclosed,115000,464,Garden,Clackamas,,964,1957,,97015-8570,HDR
,95.00,5.00,,,,0.84,703,839,C,,Vancouver,14.68,,,0.481,45.6849827,,-122.6619465,0,2,20,,1.15,Not Disclosed,19798,,Low-Rise,Northeast Hazel Dell-Starcrest,1525,804,1968,,98665-8936,"CH, Vancouver"
2.70,97.30,,,,,1.40,1119,796,C,,Portland,2.18,,,1.96,45.4949980,,-122.7675180,0,1,36,,0.50,Not Disclosed,29750,,Garden,Raleigh Hills,,800,1965,,97225-2836,"R24, Washington County"
34.09,36.36,29.55,,,Laundry Facilities,1.82,1393,766,C,,Tigard,0.56,Laundry Facilities,,3.02,45.4358710,,-122.7673000,0,2,88,619,1.47,Not Disclosed,36992,,Garden,Downtown Tigard,918,784,1969,,97223-6401,"R12, Tigard"
,100.00,,,,"Lawn, Patio",1.14,686,600,C,,Vancouver,6.84,"Lawn, Patio",,1.26,45.6209850,,-122.5747210,0,1,24,,1.66,Not Disclosed,14400,,Garden,Vancouver Heights,,600,1960,,98664-3423,MD
,61.54,38.46,,,"Laundry Facilities, Storage Space, Patio, Wheelchair Accessible (Rooms)",1.36,1392,1027,C,,Beaverton,1.47,"Laundry Facilities, Storage Space, Patio, Wheelchair Accessible (Rooms)",,1.29,45.4880840,,-122.7781870,0,2,26,,1.69,Not Disclosed,24792,,Garden,Raleigh Hills,1150,950,1968,,97005,R-24
33.33,66.67,,,,Laundry Facilities,1.66,1261,761,C,,Portland,0.41,Laundry Facilities,,1.0843,45.5301578,,-122.5577306,0,2,36,608,,Not Disclosed,29164,,Garden,Gateway,,838,1969,,97220-3965,CX
100.00,,,,,"Air Conditioning, Laundry Facilities, Dining Room",,,600,C,,Portland,4.91,"Air Conditioning, Laundry Facilities, Dining Room",,1.44,45.5447990,,-122.5560040,0,2,29,600,,Not Disclosed,43382,,Low-Rise,Parkrose Heights,,,1964,,97220,R2
,100.00,,,,"Trash Pickup - Door to Door, Porch",1.05,868,825,C,,Portland,0.74,"Trash Pickup - Door to Door, Porch",,1.040519,45.4891360,,-122.5561774,0,1,20,,1.35,Not Disclosed,16500,,Garden,Lents,,825,1963,,97266,"R2, Portland"
,91.89,8.11,,,"Clubhouse, Laundry Facilities, Pool, Property Manager on Site, Maintenance on site, Patio, Public Transportation",1.64,1517,927,C,,Portland,0.79,"Clubhouse, Laundry Facilities, Pool, Property Manager on Site, Maintenance on site, Patio, Public Transportation",,3,45.5359200,,-122.5542990,0,2,74,,1.40,Not Disclosed,71200,,Garden,Parkrose Heights,1128,910,1969,,97220,R3
,96.43,3.57,,,"Air Conditioning, Laundry Facilities, Recycling",1.07,1124,1050,C,,Tigard,1.64,"Air Conditioning, Laundry Facilities, Recycling",,1.63,45.4174380,,-122.7856810,0,2,28,,1.86,Not Disclosed,29400,,Garden,Bull Mountain,,1050,1968,,97224,R-12
26.67,73.33,,,,"24 Hour Access, Air Conditioning, Controlled Access, Property Manager on Site, Tenant Controlled HVAC, Renters Insurance Program, Hearing Impaired Accessible, Maintenance on site, Online Services, Vision Impaired Accessible, Handrails, Mother-in-law Unit, Trash Compactor, Vinyl Flooring, Warming Drawer, Wheelchair Accessible (Rooms), Window Coverings, Individual Locking Bedrooms, Private Bathroom",1.54,1373,890,C,,Portland,0.87,"24 Hour Access, Air Conditioning, Controlled Access, Property Manager on Site, Tenant Controlled HVAC, Renters Insurance Program, Hearing Impaired Accessible, Maintenance on site, Online Services, Vision Impaired Accessible, Handrails, Mother-in-law Unit, Trash Compactor, Vinyl Flooring, Warming Drawer, Wheelchair Accessible (Rooms), Window Coverings, Individual Locking Bedrooms, Private Bathroom",,1.53,45.5322850,,-122.5514870,0,2,30,600,1.07,Not Disclosed,28040,,Low-Rise,Gateway,,995,1969,,97220-3076,"R1, Portland"
39.39,60.61,,,,"Air Conditioning, Laundry Facilities",1.06,814,771,C,,Beaverton,0.87,"Air Conditioning, Laundry Facilities",,1.38,45.4928650,,-122.7882600,0,2,33,650,2.67,Not Disclosed,25450,,Low-Rise,Raleigh Hills,,850,1967,,97005-1855,"R24, Beaverton"
17.24,79.31,3.45,,,"24 Hour Access, Property Manager on Site, Lounge, Maintenance on site, Online Services, Double Pane Windows, Patio, Smoke Free",1.76,1713,971,C,,Beaverton,0.89,"24 Hour Access, Property Manager on Site, Lounge, Maintenance on site, Online Services, Double Pane Windows, Patio, Smoke Free",,1.71,45.4928810,,-122.7868650,0,3,58,970,1.34,Not Disclosed,58248,,Low-Rise,Raleigh Hills,1000,970,1968,,97005-1853,"R24, Beaverton"
,,,,,"Laundry Facilities, Walking/Biking Trails, Online Services, Public Transportation",,,,C,,Portland,8.46,"Laundry Facilities, Walking/Biking Trails, Online Services, Public Transportation",,0.854,45.5032420,,-122.5497800,0,2,20,,1.21,Not Disclosed,16512,,Low-Rise,Powellhurst-Gilbert,,,1968,,97266-1159,R5A
71.43,28.57,,,,"Air Conditioning, Courtyard, Laundry Facilities, Playground, Laundry Service, Smoke Free",1.56,966,621,C,,Portland,8.95,"Air Conditioning, Courtyard, Laundry Facilities, Playground, Laundry Service, Smoke Free",,2.3285,45.5051630,,-122.5396970,0,2,70,565,1.99,Not Disclosed,65578,,Garden,Mill Park,,762,1963,,97216-4067,N/Av
16.30,83.70,,,,"24 Hour Access, Fitness Center, Sauna, Gameroom, Pet Play Area, Trash Pickup - Curbside, Garden",1.46,1205,825,C,,Portland,0.58,"24 Hour Access, Fitness Center, Sauna, Gameroom, Pet Play Area, Trash Pickup - Curbside, Garden",,3.66,45.5286780,,-122.5399700,0,2,92,626,1.22,Not Disclosed,80346,,Garden,Gateway,,865,1969,,97230-2156,R3
14.81,77.78,7.41,,,"Fitness Center, Laundry Facilities, Property Manager on Site, Gated, Media Center/Movie Theatre",1.38,1252,907,C,,Portland,0.52,"Fitness Center, Laundry Facilities, Property Manager on Site, Gated, Media Center/Movie Theatre",,1.827,45.5294440,,-122.5388090,0,2,54,650,1.47,Not Disclosed,54340,,Garden,Gateway,1120,936,1969,,97230-2051,R3
36.84,52.63,10.53,,,"Courtyard, Laundry Facilities, Putting Greens, Walking/Biking Trails",1.19,1093,919,C,,Portland,0.54,"Courtyard, Laundry Facilities, Putting Greens, Walking/Biking Trails",,1.8136,45.5297500,,-122.5383670,0,2,38,688,2.26,Not Disclosed,35474,,Low-Rise,Gateway,1470,971,1964,,97230,R3
14.29,80.95,4.76,,,"Laundry Facilities, Deck, Patio",1.32,1166,884,C,,Portland,0.65,"Laundry Facilities, Deck, Patio",,1.2817,45.5307510,,-122.5383900,0,2,42,640,1.08,Not Disclosed,36974,,Low-Rise,Gateway,1076,916,1968,,97230,R3
42.11,57.89,,,,"Laundry Facilities, Laundry Service",1.84,1504,816,C,,Portland,0.67,"Laundry Facilities, Laundry Service",,1.26,45.5315145,,-122.5383507,0,2,38,700,1.76,Not Disclosed,33998,,Low-Rise,Gateway,,900,1960,,97230-2067,"R3, County"
,100.00,,,,"Air Conditioning, Laundry Facilities",1.42,1216,855,C,,Portland,0.47,"Air Conditioning, Laundry Facilities",,1.29,45.5159250,,-122.5384090,0,2,25,,1.64,Not Disclosed,22394,,Garden,Mill Park,,855,1968,,97233,"R3, Portland"
100.00,,,,,"Property Manager on Site, Online Services, Dining Room",1.88,1125,600,C,,Portland,0.78,"Property Manager on Site, Online Services, Dining Room",,1.7287,45.5121850,,-122.5364550,0,2,54,600,1.84,Not Disclosed,32538,,Low-Rise,Mill Park,,,1964,,97233-1265,"R3 & R2.5, Portland"
30.26,39.47,30.26,,,"Courtyard, Laundry Facilities, Pool, Spa",1.35,1171,870,C,,Portland,7.59,"Courtyard, Laundry Facilities, Pool, Spa",,1.1127,45.5085568,,-122.5386518,0,2,76,740,2.00,Not Disclosed,66142,,Garden,Mill Park,1014,860,1969,,97233-1378,R3
65.98,,,,34.02,"Laundry Facilities, Patio",1.70,855,502,C,,Portland,9.87,"Laundry Facilities, Patio",,,45.4925030,,-122.5388630,0,1,97,550,1.48,Not Disclosed,57320,410,Garden,Powellhurst-Gilbert,,,1967,,97236-3758,R1
50.00,50.00,,,,"Courtyard, Laundry Facilities, Wheelchair Accessible (Rooms)",1.61,1027,638,C,,Beaverton,0.28,"Courtyard, Laundry Facilities, Wheelchair Accessible (Rooms)",,1.1074,45.4942540,,-122.8024630,0,1,22,525,1.23,Not Disclosed,13860,,Garden,Cedar Hills,,750,1961,2015,97005-1736,"R24, County"
33.33,66.67,,,,"Deck, Patio",1.06,1045,983,C,,Portland,4.25,"Deck, Patio",,1.7507,45.5267100,,-122.8036260,0,2,48,750,1.29,Not Disclosed,45961,,Garden,Cedar Hills-Cedar Mill,,1100,1968,,97229-5674,"R24-40, Portland"
3.45,96.55,,,,"Courtyard, Laundry Facilities, Laundry Service, Breakfast Nook, Dining Room, Pantry, Smoke Free",1.61,1167,727,C,,Beaverton,1.36,"Courtyard, Laundry Facilities, Laundry Service, Breakfast Nook, Dining Room, Pantry, Smoke Free",,1.17,45.4736770,,-122.8038830,0,2,29,495,1.14,Not Disclosed,23498,,Garden,Vose,,735,1967,,97008-4756,"R1, Beaverton"
65.52,31.03,3.45,,,"Courtyard, Fenced Lot, Laundry Facilities",1.02,677,666,C,,Portland,9.13,"Courtyard, Fenced Lot, Laundry Facilities",,1.124,45.5032230,,-122.5343570,0,2,29,560,1.45,Not Disclosed,18384,,Low-Rise,Powellhurst-Gilbert,1110,840,1967,,97236-3153,"R1a, Portland"
100.00,,,,,"Controlled Access, Fenced Lot, Laundry Facilities, Picnic Area, Deck, Patio",1.99,1296,650,C,,Portland,0.39,"Controlled Access, Fenced Lot, Laundry Facilities, Picnic Area, Deck, Patio",,0.9293,45.5196444,,-122.5341241,0,2,28,650,1.90,Not Disclosed,18360,,Low-Rise,Gateway,,,1965,,97233-1065,RH
25.00,43.75,31.25,,,"Courtyard, Laundry Facilities, Security System, Laundry Service",1.43,1279,894,C,,Portland,6.26,"Courtyard, Laundry Facilities, Security System, Laundry Service",,2.2754,45.5327290,,-122.5282960,0,2,48,660,2.24,Not Disclosed,43375,,Garden,Gateway,1150,845,1965,,97230-3258,R3
27.00,73.00,,,,"Laundry Facilities, Patio, Smoke Free",1.29,1282,997,C,,Portland,5.05,"Laundry Facilities, Patio, Smoke Free",,3.2734,45.5546250,,-122.5271510,0,2,100,682,1.33,Not Disclosed,91070,,Garden,Argay,,1113,1969,,97230-2605,"R2, Portland"
25.00,75.00,,,,,0.93,674,728,C,,Beaverton,0.79,,,1.01,45.4863430,,-122.8204610,0,3,24,570,1.54,Not Disclosed,23337,,Low-Rise,Central Beaverton,,780,1969,,97005,"R1, Beaverton"
14.81,85.19,,,,"Property Manager on Site, Online Services",1.44,1335,930,C,,Portland,0.87,"Property Manager on Site, Online Services",,0.66,45.5329760,,-122.4976380,0,2,27,680,1.57,Not Disclosed,25404,,Garden,Wilkes,,973,1953,,97230,BPO
31.48,68.52,,,,"Courtyard, Laundry Facilities, Property Manager on Site, Video Patrol, Recycling, Yard",1.35,1073,796,C,,Portland,0.15,"Courtyard, Laundry Facilities, Property Manager on Site, Video Patrol, Recycling, Yard",,1.854,45.5230843,,-122.4972098,0,2,54,725,1.37,Not Disclosed,58196,,Garden,Glenfair,,829,1969,,97230-5871,"SC, Gresham"
11.76,58.82,23.53,0.0588,,,1.09,1253,1154,C,,Portland,0.17,,1520,1.792,45.5242792,,-122.4956214,0,2,34,767,2.06,Not Disclosed,37608,,Garden,Rockwood,1377,1106,1966,,97230-5474,"SC, Gresham"
28.57,71.43,,,,"Laundry Facilities, Online Services",1.61,1304,810,C,,Portland,0.37,"Laundry Facilities, Online Services",,0.68,45.5275936,,-122.4968976,0,2,20,714,1.18,Not Disclosed,16156,,Low-Rise,Wilkes,,851,1969,,97230,CMF
27.78,72.22,,,,"24 Hour Access, Fitness Center, Laundry Facilities, Picnic Area, Playground, Pool, Property Manager on Site, Laundry Service, Recycling, Maintenance on site, Freezer",1.65,1273,773,B,,Portland,0.35,"24 Hour Access, Fitness Center, Laundry Facilities, Picnic Area, Playground, Pool, Property Manager on Site, Laundry Service, Recycling, Maintenance on site, Freezer",,3.24,45.5178958,,-122.4953200,0,2,72,650,1.15,Not Disclosed,83408,,Low-Rise,Centennial,,820,1968,,97233,R2
,100.00,,,,Recycling,0.91,767,840,C,,Beaverton,0.85,Recycling,,1.79,45.4984770,,-122.8526830,0,1,20,,2.20,Not Disclosed,16800,,Garden,Cooper Mountain-Aloha North,,840,1950,,97006-5065,"R5,  County"
,100.00,,,,"Laundry Facilities, Online Services, Dining Room, Patio",1.24,1186,958,C,,Beaverton,2.82,"Laundry Facilities, Online Services, Dining Room, Patio",,2.0796,45.4945050,,-122.8529680,0,2,41,,1.71,Not Disclosed,57650,,Garden,Cooper Mountain-Aloha North,,959,1960,,97006-5019,"R24, Beaverton"
,91.25,8.75,,,"Laundry Facilities, Playground, Property Manager on Site, Security System, Storage Space, Maintenance on site",1.40,1257,901,C,,Portland,0.36,"Laundry Facilities, Playground, Property Manager on Site, Security System, Storage Space, Maintenance on site",,3.2541,45.5165200,,-122.4674300,0,2,80,,1.25,Not Disclosed,68600,,Garden,Rockwood,950,897,1965,,97233,"RTC, Portland"
,45.45,54.55,,,"Laundry Facilities, Yard",1.36,1402,1028,C,,Gresham,0.84,"Laundry Facilities, Yard",,1.86,45.5167770,,-122.4343290,0,2,33,,2.09,Not Disclosed,35362,,Garden,Gresham-North Central,1118,920,1968,,97030-2596,"CMF, Gresham"
,100.00,,,,"Courtyard, Laundry Facilities, Yard, Patio, Window Coverings",0.99,1091,1100,C,,Milwaukie,17.73,"Courtyard, Laundry Facilities, Yard, Patio, Window Coverings",,1.459986,45.3894581,,-122.6090916,0,2,28,,,Not Disclosed,34232,,Garden,Jennings Lodge,,1100,1968,,97267,N/Av
,,,,,,,,,C,,Cornelius,31.2,,,2.37,45.5213630,,-123.0655470,0,1,26,,2.76,Not Disclosed,12672,,Garden,Outlying Washington County,,,1961,,97113-9162,N/Av
33.33,50.00,16.67,,,"Courtyard, Laundry Facilities, Pool, Property Manager on Site, Deck, Patio",1.46,1292,883,B,,Beaverton,1.23,"Courtyard, Laundry Facilities, Pool, Property Manager on Site, Deck, Patio",,2.22,45.4760761,,-122.7969786,0,2,48,725,1.82,Not Disclosed,56192,,Low-Rise,Vose,1192,885,1969,,97005,R2
35.19,42.59,22.22,,,"Air Conditioning, Laundry Facilities, Property Manager on Site, Wheelchair Accessible (Rooms)",1.19,884,742,C,,Beaverton,1.14,"Air Conditioning, Laundry Facilities, Property Manager on Site, Wheelchair Accessible (Rooms)",,2.15,45.4761357,,-122.8025750,0,2,54,572,1.00,Not Disclosed,39832,,Garden,Vose,988,754,1962,2005,97005,"R7, Beaverton"
80.00,20.00,,,,,1.60,1026,640,C,,Gladstone,17.44,,,0.3,45.3776120,,-122.5963080,0,2,20,600,1.88,Not Disclosed,18000,,Low-Rise,Gladstone,,800,1966,,97027-2305,N/Av
23.08,76.92,,,,Laundry Facilities,1.44,990,688,C,,Tigard,0.28,Laundry Facilities,,0.6612,45.4299930,,-122.7663160,0,2,26,650,1.15,Not Disclosed,17900,,Low-Rise,Downtown Tigard,,700,1967,,97223-6237,"CBD, Tigard"
,100.00,,,,"Clubhouse, Laundry Facilities, Multi Use Room, Deck, Dining Room, Pantry, Patio",1.29,1130,875,C,,Tigard,0.54,"Clubhouse, Laundry Facilities, Multi Use Room, Deck, Dining Room, Pantry, Patio",,1.74,45.4253100,,-122.7729730,0,2,36,,2.15,Not Disclosed,31500,,Garden,Downtown Tigard,,875,1969,,97223-6058,R-12
96.30,3.70,,,,"24 Hour Access, Air Conditioning, Laundry Facilities, Property Manager on Site, Grill, Storage Space, Maintenance on site, Grill, Porch",1.81,1456,804,C,,Portland,0.94,"24 Hour Access, Air Conditioning, Laundry Facilities, Property Manager on Site, Grill, Storage Space, Maintenance on site, Grill, Porch",,3.2,45.4885440,,-122.6810200,0,2,54,800,1.23,Not Disclosed,60650,,Low-Rise,South Portland,,900,1962,,97239-2872,R2
,80.65,19.35,,,"Clubhouse, Laundry Facilities, Playground, Property Manager on Site, Maintenance on site",1.31,1459,1114,C,,Portland,4.73,"Clubhouse, Laundry Facilities, Playground, Property Manager on Site, Maintenance on site",,4.02,45.4841901,,-122.7141159,0,2,62,,1.13,Not Disclosed,75218,,Garden,Bridlemile,1275,1075,1967,,97221-3852,R2
16.67,63.89,19.44,,,"Deck, Patio, Vinyl Flooring, Wheelchair Accessible (Rooms)",1.47,1314,892,C,,Portland,1.6,"Deck, Patio, Vinyl Flooring, Wheelchair Accessible (Rooms)",,0.26,45.4156124,,-122.7570779,0,2,36,720,1.11,Not Disclosed,31520,,Garden,Downtown Tigard,1100,874,1952,,97224,R-12
89.19,8.11,2.70,,,"Laundry Facilities, Waterfront, Walking/Biking Trails, Deck, Dining Room",1.89,1385,749,C,,Tualatin,0.46,"Laundry Facilities, Waterfront, Walking/Biking Trails, Deck, Dining Room",,4.38,45.3781886,,-122.7662361,0,2,95,733,,Not Disclosed,85000,,Garden,Sherwood/Tualatin South,,,1968,,97062-9013,RH
,,100.00,,,"Patio, Porch",1.66,1574,950,C,,Portland,11.1,"Patio, Porch",,1.3621,45.5991470,,-122.7530290,0,1,20,,1.60,Not Disclosed,19000,,Garden,St Johns,950,,1963,,97203-2263,"R5, Portland"
,,,,100.00,,,,,C,,Portland,0.9,,,0.4968,45.5345531,,-122.5924234,0,2,20,,,Not Disclosed,23236,,Low-Rise,Madison South,,,1960,,97213,CG
58.82,41.18,,,,Deck,1.86,1400,772,C,,Portland,5.78,Deck,,1.0663,45.4788180,,-122.6918880,0,2,29,648,0.99,Not Disclosed,30234,,Low-Rise,Hillsdale,,949,1963,,97239-2622,R1
38.46,61.54,,,,"24 Hour Access, Property Manager on Site, Recycling, Deck, Lawn, Patio, Porch, Skylights, Vinyl Flooring, Window Coverings",1.72,1359,790,C,,Portland,0.82,"24 Hour Access, Property Manager on Site, Recycling, Deck, Lawn, Patio, Porch, Skylights, Vinyl Flooring, Window Coverings",,0.78,45.5225192,,-122.6085665,0,2,26,775,0.77,Not Disclosed,20000,,Garden,Mt Tabor,,800,1968,,97215,R2
49.21,50.79,,,,Laundry Facilities,1.10,969,877,C,,Portland,0.29,Laundry Facilities,,1.76,45.5236050,,-122.5417140,0,1,63,750,1.40,Not Disclosed,55250,,Garden,Gateway,,1000,1967,,97216-3775,RH
,100.00,,,,"Business Center, Laundry Facilities, Patio, Smoke Free",1.20,927,775,C,,Portland,0.29,"Business Center, Laundry Facilities, Patio, Smoke Free",,1.0873,45.5219263,,-122.5319040,0,2,22,,1.17,Not Disclosed,25644,,Garden,Gateway,,775,1965,,97233-1563,"R2, Portland"
16.33,83.67,,,,"Laundry Facilities, Pool, Recycling",1.58,1089,640,C,,Gresham,0.09,"Laundry Facilities, Pool, Recycling",,0.72,45.5219119,,-122.4948001,0,2,49,640,1.53,Not Disclosed,38542,,Garden,Rockwood,,,1968,,97233,"HDR60, Gresham"
50.00,50.00,,,,Laundry Facilities,1.18,1070,910,C,,Portland,0.14,Laundry Facilities,,1.1696,45.5229045,,-122.4785046,0,2,28,860,0.97,Not Disclosed,30754,,Garden,Rockwood,,960,1969,,97233-4829,SC
26.67,73.33,,,,Laundry Facilities,1.42,1060,747,C,,Portland,0.2,Laundry Facilities,,1.0316,45.5221716,,-122.4739674,0,2,30,600,,Not Disclosed,23120,,Low-Rise,Rockwood,,800,1964,,97233-5350,N/Av
4.17,70.83,25.00,,,Laundry Facilities,1.34,1151,867,C,,Portland,9.17,Laundry Facilities,,1.088,45.4957604,,-122.5490805,0,2,24,,1.42,Not Disclosed,42650,,Garden,Lents-Powellhurst-Gilbert,1200,750,1965,,97266-2207,"R3, Portland"
100.00,,,,,,1.67,1141,684,C,,Portland,0.48,,,1.53,45.5111341,,-122.7875025,0,2,36,684,,Not Disclosed,44832,,Garden,Cedar Hills,,,1955,,97225,R18-24
26.67,73.33,,,,"Courtyard, Laundry Facilities, Laundry Service, Online Services, Deck, Patio, Smoke Free",1.74,1518,872,C,,Portland,0.38,"Courtyard, Laundry Facilities, Laundry Service, Online Services, Deck, Patio, Smoke Free",,1.55,45.5103935,,-122.7870096,0,2,30,728,,Not Disclosed,26153,,Garden,Cedar Hills,,925,1968,,97225,N/Av
27.27,72.73,,,,Laundry Facilities,0.80,618,768,C,,Rainier,,Laundry Facilities,,0.6887,46.0893660,,-122.9398180,0,3,22,550,1.30,Not Disclosed,16900,,Low-Rise,Columbia County,,850,1967,,97048-2655,R3
25.00,66.67,8.33,,,"Air Conditioning, Clubhouse, Fitness Center, Laundry Facilities, Picnic Area, Sauna, Spa, Grill, Laundry Service, Wheelchair Accessible (Rooms)",1.46,1471,1007,B,,Portland,2.09,"Air Conditioning, Clubhouse, Fitness Center, Laundry Facilities, Picnic Area, Sauna, Spa, Grill, Laundry Service, Wheelchair Accessible (Rooms)",,3.82,45.4997681,,-122.7652034,0,2,96,814,1.64,Not Disclosed,96578,,Garden,Cedar Hills,1357,1035,1968,2009,97225-3964,R-24
20.83,79.17,,,,Laundry Facilities,1.00,758,758,C,,Beaverton,0.12,Laundry Facilities,,1.04,45.4898170,,-122.8026450,0,2,24,600,1.54,Not Disclosed,16500,,Low-Rise,Downtown Beaverton,,800,1963,,97005-2147,"RC-TO, Beaverton"
,100.00,,,,,,,,C,,Vancouver,9.56,,,1.38,45.6374307,,-122.6179260,0,1,20,,1.92,Not Disclosed,15600,,Garden,Meadow Homes,,,1969,,98661-6599,ua
53.23,41.13,,,5.65,"Clubhouse, Fitness Center, Laundry Facilities, Playground, Sauna, Gameroom, Multi Use Room, Deck, Dining Room, Patio",1.73,1259,725,C,,Beaverton,0.3,"Clubhouse, Fitness Center, Laundry Facilities, Playground, Sauna, Gameroom, Multi Use Room, Deck, Dining Room, Patio",,4.0218,45.4931410,,-122.8018130,0,2,123,650,0.97,Not Disclosed,92285,440,Garden,Downtown Beaverton,,867,1969,,97005-1767,RC-TO
50.00,50.00,,,,Laundry Facilities,1.35,842,625,C,,Gladstone,17.88,Laundry Facilities,,0.77,45.3770980,,-122.6012130,0,2,24,550,0.96,Not Disclosed,18034,,Low-Rise,Gladstone,,700,1964,,97027,"R5, Gladstone"
,86.67,13.33,,,"Laundry Facilities, Playground",0.90,807,899,C,,Gresham,0.37,"Laundry Facilities, Playground",,1.8,45.5000229,,-122.4198431,0,2,30,,2.03,Not Disclosed,27120,,Garden,Downtown Gresham,1000,885,1969,,97030,MDR24
,,,,,"Laundry Facilities, Maintenance on site, Smoke Free",,,,C,,Portland,8.31,"Laundry Facilities, Maintenance on site, Smoke Free",,0.68,45.5032166,,-122.6098400,0,1,20,,1.00,Not Disclosed,21480,,Garden,Richmond,,,1952,,97206-1400,"R1, Portland"
,100.00,,,,"Air Conditioning, Laundry Facilities, Patio",1.29,1122,872,C,,Saint Helens,33.88,"Air Conditioning, Laundry Facilities, Patio",,1.65,45.8575229,,-122.8265501,0,2,56,,,Not Disclosed,44788,,Garden,Columbia County,,872,1967,1994,97051-1655,AR
25.00,58.33,,,16.67,"Courtyard, Lawn, Public Transportation",2.08,1343,646,C,,Portland,0.44,"Courtyard, Lawn, Public Transportation",,0.9183,45.4962360,,-122.6761030,0,2,36,546,1.54,Not Disclosed,23247,350,Garden,South Portland,,773,1954,,97239,R2
36.36,63.64,,,,"Courtyard, Laundry Facilities, Bicycle Storage",,,891,C,,Portland,0.64,"Courtyard, Laundry Facilities, Bicycle Storage",,0.69,45.4868300,,-122.6764850,0,3,22,700,0.50,Not Disclosed,24180,,Low-Rise,South Portland,,1000,1956,,97239,RM2
13.04,78.26,8.70,,,"Courtyard, Patio",1.07,1092,1024,C,,Portland,4.3,"Courtyard, Patio",,2.5,45.5246650,,-122.8114560,0,2,46,750,1.61,Not Disclosed,49200,,Low-Rise,Cedar Hills-Cedar Mill,1200,1050,1969,,97229-5855,"R24-40, Portland"
100.00,,,,,,,,650,C,,Portland,3.86,,,0.8,45.5532280,,-122.6021410,0,2,22,650,1.71,Not Disclosed,23456,,Low-Rise,Cully,,,1968,,97218,R2H
60.00,40.00,,,,Laundry Facilities,1.23,811,662,C,,Vancouver,12.03,Laundry Facilities,,0.6045,45.6360460,,-122.6744620,0,2,20,570,1.00,Not Disclosed,16508,,Low-Rise,Uptown Vancouver,,800,1950,,98660-2500,UA
65.45,9.09,,,25.45,,2.13,1186,556,C,,Portland,0.39,,,0.2723,45.5243190,,-122.6960455,0,6,55,585,,Not Disclosed,53694,411,Mid-Rise,Uptown Portland,,750,1951,,97210,RH
8.16,74.15,17.69,,,"Laundry Facilities, Playground, Property Manager on Site, Car Wash Area, Laundry Service",1.39,1224,882,C,,Vancouver,7.87,"Laundry Facilities, Playground, Property Manager on Site, Car Wash Area, Laundry Service",,10.47,45.6238810,,-122.5940700,0,1,147,575,,Not Disclosed,174414,,Garden,Vancouver Heights,1041,879,1967,,98664,MD
15.38,80.77,,,3.85,"Pool, Property Manager on Site, Deck, Patio",1.39,1251,898,C,,Gresham,0.5,"Pool, Property Manager on Site, Deck, Patio",,2.12,45.5056057,,-122.4128297,0,2,52,687,1.72,Not Disclosed,47398,573,Garden,Gresham-Northeast,,954,1969,,97030-5830,"CMU, Gresham"
50.00,50.00,,,,"Laundry Facilities, Dining Room, Window Coverings",,,,C,,Gresham,9.99,"Laundry Facilities, Dining Room, Window Coverings",,1,45.5040310,,-122.4783534,0,2,30,,1.40,Not Disclosed,24508,,Low-Rise,Gresham-Centennial,,,1964,,97236,"CMU, Portland"
39.47,47.37,10.53,,2.63,,1.45,1182,815,C,,Portland,7.55,,,1.03,45.5049877,,-122.5970910,0,2,38,600,,Not Disclosed,30921,540,Low-Rise,South Tabor,1140,938,1968,,97206,R1
37.14,57.14,,,5.71,"Air Conditioning, Laundry Facilities, Property Manager on Site, Sauna, Window Coverings",1.43,1221,855,B,,Portland,7.11,"Air Conditioning, Laundry Facilities, Property Manager on Site, Sauna, Window Coverings",,2.19,45.5050900,,-122.5878534,0,2,70,750,0.92,Not Disclosed,95396,400,Low-Rise,South Tabor,,968,1968,,97206-1101,R1
43.75,56.25,,,,,1.60,1088,681,C,,Portland,9.32,,,0.8371,45.5037179,,-122.5310098,0,2,32,625,1.66,Not Disclosed,22100,,Low-Rise,Powellhurst-Gilbert,,725,1962,,97236,"R2, Portland"
,100.00,,,,"Laundry Facilities, Yard",1.22,1162,950,C,,Portland,9.75,"Laundry Facilities, Yard",,1.78,45.5049600,,-122.4833450,0,2,52,,1.48,Not Disclosed,49504,,Garden,Gresham-Centennial,,950,1967,,97236-1073,"R2, Portland"
,100.00,,,,"Laundry Facilities, Smoke Free",1.27,1188,935,C,,Portland,4.59,"Laundry Facilities, Smoke Free",,1.1688,45.4618820,,-122.7097140,0,2,20,,1.47,Not Disclosed,23852,,Garden,Multnomah,,935,1969,,97219,R1
51.06,48.94,,,,"Controlled Access, Fitness Center, Laundry Facilities, Property Manager on Site, Gated, Laundry Service, Package Service, Sundeck, Smoke Free, Wheelchair Accessible (Rooms)",1.75,1399,799,C,,Lake Oswego,6.64,"Controlled Access, Fitness Center, Laundry Facilities, Property Manager on Site, Gated, Laundry Service, Package Service, Sundeck, Smoke Free, Wheelchair Accessible (Rooms)",,2.52,45.4247935,,-122.6638990,0,3,47,685,1.17,Not Disclosed,37530,,Low-Rise,Evergreen,,917,1966,,97034-2318,R-0
,79.41,20.59,,,"Courtyard, Laundry Facilities",1.53,1319,860,C,,Beaverton,0.55,"Courtyard, Laundry Facilities",,1.39,45.4906650,,-122.8158260,0,2,34,,1.65,Not Disclosed,29250,,Low-Rise,Central Beaverton,900,850,1964,,97005,"SC-HDR, Beaverton"
22.22,64.44,,,13.33,"Courtyard, Laundry Facilities, Wheelchair Accessible (Rooms)",1.50,957,636,C,,Beaverton,0.51,"Courtyard, Laundry Facilities, Wheelchair Accessible (Rooms)",,1.94,45.4900940,,-122.8162280,0,2,45,585,1.41,Not Disclosed,35480,485,Low-Rise,Central Beaverton,,685,1965,,97005-2424,"SC-HDR, Beaverton"
37.24,33.79,28.97,,,"Business Center, Clubhouse, Fitness Center, Laundry Facilities, Playground, Pool, Property Manager on Site, Sauna, Security System, Spa, Yard, Maintenance on site, Deck, Dining Room, Double Pane Windows, Family Room",2.00,1797,899,C,,Beaverton,0.55,"Business Center, Clubhouse, Fitness Center, Laundry Facilities, Playground, Pool, Property Manager on Site, Sauna, Security System, Spa, Yard, Maintenance on site, Deck, Dining Room, Double Pane Windows, Family Room",,5.99,45.4916560,,-122.8175270,0,2,145,724,1.54,Not Disclosed,133418,,Garden,Central Beaverton,1157,873,1969,2016,97005,"SCHDR, Beaverton"
37.50,39.06,23.44,,,"Courtyard, Laundry Facilities, Property Manager on Site, Breakfast/Coffee Concierge, Laundry Service, Package Service, Recycling, Trash Pickup - Curbside, Built-In Bookshelves, Deck, Dining Room, Patio",1.46,1567,1072,C,,Beaverton,0.36,"Courtyard, Laundry Facilities, Property Manager on Site, Breakfast/Coffee Concierge, Laundry Service, Package Service, Recycling, Trash Pickup - Curbside, Built-In Bookshelves, Deck, Dining Room, Patio",,2.85,45.4919569,,-122.8185532,0,2,64,900,1.33,Not Disclosed,60874,,Garden,Central Beaverton,1300,1100,1968,,97005-2479,R2
32.61,54.35,13.04,,,"Playground, Pool, Laundry Service",1.45,990,683,C,,Mcminnville,,"Playground, Pool, Laundry Service",,3.87,45.2083664,,-123.2016700,0,2,46,600,,Not Disclosed,32200,,Garden,Yamhill County,850,692,1968,,97128-5921,C
50.00,,,,50.00,"Courtyard, Laundry Facilities, Furnished Units Available, Storage Space, Bicycle Storage, Intercom, Patio, Smoke Free",2.54,1212,478,C,,Portland,0.34,"Courtyard, Laundry Facilities, Furnished Units Available, Storage Space, Bicycle Storage, Intercom, Patio, Smoke Free",,0.2296,45.5250660,,-122.6960880,0,7,48,580,0.27,Not Disclosed,73836,375,Mid-Rise,Uptown Portland,,,1950,,97210,RH
58.33,41.67,,,,"Courtyard, Laundry Facilities, Property Manager on Site, Package Service, Storage Space, Sundeck, Dining Room, Vinyl Flooring, Window Coverings",1.36,1044,769,C,,Lake Oswego,6.52,"Courtyard, Laundry Facilities, Property Manager on Site, Package Service, Storage Space, Sundeck, Dining Room, Vinyl Flooring, Window Coverings",,0.63,45.4179696,,-122.6665687,0,2,24,675,,Not Disclosed,24646,,Low-Rise,Evergreen,,900,1961,,97034,EC/R-0
33.33,42.86,,,23.81,"Air Conditioning, Clubhouse, Fitness Center, Laundry Facilities, Playground, Property Manager on Site, Sauna, Spa, On-Site Retail, Lounge, Patio, Wheelchair Accessible (Rooms)",1.50,1147,766,B,,Vancouver,8.48,"Air Conditioning, Clubhouse, Fitness Center, Laundry Facilities, Playground, Property Manager on Site, Sauna, Spa, On-Site Retail, Lounge, Patio, Wheelchair Accessible (Rooms)",,4.54,45.6187770,,-122.6177600,2,4,126,700,3.10,Not Disclosed,150618,493,Mid-Rise,Columbia Way,,970,1968,2010,98661-6607,R-30
100.00,,,,,"24 Hour Access, Laundry Facilities, Property Manager on Site, Maintenance on site, Window Coverings, Public Transportation",1.92,960,500,C,,Beaverton,0.74,"24 Hour Access, Laundry Facilities, Property Manager on Site, Maintenance on site, Window Coverings, Public Transportation",,4.1,45.4883640,,-122.8198410,0,2,166,500,2.46,Not Disclosed,90882,,Garden,Central Beaverton,,,1966,,97005-2670,GC
34.43,65.57,,,,"Air Conditioning, Laundry Facilities",1.96,1529,780,C,,Beaverton,1.03,"Air Conditioning, Laundry Facilities",,2.2,45.4849210,,-122.8282170,0,2,61,594,1.68,Not Disclosed,47378,,Garden,West Beaverton,,877,1968,2018,97007-2755,"R2, Beaverton"
9.52,76.19,14.29,,,"Laundry Facilities, Property Manager on Site, Laundry Service, Maintenance on site, Freezer, Smoke Free",1.70,1322,776,C,,Portland,9.87,"Laundry Facilities, Property Manager on Site, Laundry Service, Maintenance on site, Freezer, Smoke Free",,2.0202,45.5916704,,-122.7268945,0,2,42,640,1.08,Not Disclosed,46410,,Garden,Portsmouth,900,770,1969,,97203,R2
16.00,80.00,,,4.00,,,,733,C,,Portland,0.67,,,0.5619,45.5257780,,-122.5802570,0,2,25,602,0.39,Not Disclosed,20184,555,Low-Rise,Montavilla,,769,1967,,97213,R1
100.00,,,,,,2.41,1131,470,C,,Portland,0.36,,,0.2296,45.5258200,,-122.6936748,0,6,46,470,,Not Disclosed,27342,,Mid-Rise,Uptown Portland,,,1960,,97209,RH
4.00,96.00,,,,,1.28,1076,838,C,,Portland,10.13,,,2.87,45.5905090,,-122.7294210,0,1,50,720,1.07,Not Disclosed,37277,,Garden,Portsmouth,,843,1969,,97203,R2
,100.00,,,,"Laundry Facilities, Renters Insurance Program, Dining Room, Smoke Free",1.23,860,700,C,,Vancouver,12.91,"Laundry Facilities, Renters Insurance Program, Dining Room, Smoke Free",,0.73,45.6393040,,-122.6526890,0,2,22,,1.06,Not Disclosed,22692,,Low-Rise,Rose Village,,700,1964,,98661,MG
,50.00,32.35,0.1765,,"Laundry Facilities, Tennis Court, Basketball Court, Smoke Free",1.68,1520,771,C,,Portland,11.79,"Laundry Facilities, Tennis Court, Basketball Court, Smoke Free",,1.6804,45.4953020,,-122.6357550,0,2,34,,1.24,Not Disclosed,32108,,Low-Rise,Creston-Kenilworth,,771,1950,,97202-3081,"R25, Portland"
50.00,50.00,,,,Recycling,1.10,883,800,C,,Portland,4.62,Recycling,,0.953,45.5484490,,-122.5563880,0,2,20,780,2.89,Not Disclosed,34568,,Low-Rise,Parkrose,,820,1965,,97220,R2H
70.73,,,,29.27,"Laundry Facilities, Property Manager on Site, Laundry Service",1.91,1068,559,C,,Portland,0.48,"Laundry Facilities, Property Manager on Site, Laundry Service",,0.9183,45.4967985,,-122.6907197,0,2,41,585,2.05,Not Disclosed,22948,499,Low-Rise,Homestead-Council Crest,,,1951,,97239-7402,R1
,50.00,50.00,,,Laundry Facilities,1.04,1149,1100,C,,Vancouver,7.95,Laundry Facilities,,2.22,45.6216013,,-122.5944979,0,1,36,,,Not Disclosed,39600,,Garden,Vancouver Heights,1200,1000,1958,,98664,MD
,100.00,,,,,1.67,1086,650,C,,Vancouver,7.91,,,4.85,45.6270480,,-122.5902128,0,2,64,,,Not Disclosed,119210,,Garden,North Garrison Heights,,650,1968,,98664,R-18
,100.00,,,,,2.93,1984,676,C,,Vancouver,11.95,,,2.02,45.6407840,,-122.6278170,0,1,20,,0.71,Not Disclosed,27929,,Garden,Bagley Downs,,676,1965,,98661-5608,MD
8.00,92.00,,,,Laundry Facilities,1.66,1298,783,C,,Portland,11.32,Laundry Facilities,,1.211,45.4936390,,-122.6215870,0,1,25,725,1.08,Not Disclosed,20310,,Low-Rise,Creston-Kenilworth,,788,1960,,97202-3161,"R1, Portland"
,,,,100.00,"Laundry Facilities, Property Manager on Site",,,400,C,,Portland,0.69,"Laundry Facilities, Property Manager on Site",,0.832323,45.5262246,,-122.6117342,0,4,72,,,Not Disclosed,76364,400,Mid-Rise,North Tabor,,,1961,,97213,R1
47.22,38.89,11.11,,2.78,"Laundry Facilities, Picnic Area, Property Manager on Site",1.29,924,719,C,,Portland,0.42,"Laundry Facilities, Picnic Area, Property Manager on Site",,1.22,45.5257544,,-122.5352666,0,2,36,612,1.59,Not Disclosed,27726,,Low-Rise,Gateway,975,775,1963,,97230,R2
47.83,39.13,13.04,,,"Air Conditioning, Laundry Facilities",1.37,1047,771,C,,Portland,0.44,"Air Conditioning, Laundry Facilities",,1.15,45.5262215,,-122.4996701,0,1,22,619,,Not Disclosed,16534,,Low-Rise,Glenfair,1066,856,1967,,97230-5450,R3
,100.00,,,,Laundry Facilities,1.32,1191,900,C,,Tigard,0.78,Laundry Facilities,,1.17,45.4366920,,-122.7755150,0,1,21,,1.29,Not Disclosed,21907,,Low-Rise,Downtown Tigard,,900,1960,,97223-5392,"R12, Tigard"
50.00,50.00,,,,"Laundry Facilities, Yard, Garden",,,900,C,,Tigard,0.75,"Laundry Facilities, Yard, Garden",,1.14,45.4362000,,-122.7733500,0,2,24,,1.41,Not Disclosed,19846,,Garden,Downtown Tigard,,900,1965,,97223,"R4.5, Tigard"
100.00,,,,,"Courtyard, Laundry Facilities, Picnic Area, Property Manager on Site, Grill, Double Pane Windows",1.18,723,612,C,,Tigard,0.46,"Courtyard, Laundry Facilities, Picnic Area, Property Manager on Site, Grill, Double Pane Windows",,1,45.4339790,,-122.7686680,0,2,35,612,1.21,Not Disclosed,23196,,Low-Rise,Downtown Tigard,,,1966,,97223-6450,N/Av
100.00,,,,,Laundry Facilities,1.62,1018,629,C,,Beaverton,1.09,Laundry Facilities,,0.61,45.4770100,,-122.8047660,0,2,26,630,1.04,Not Disclosed,16328,,Low-Rise,Vose,,,1959,,97005,"R2, Beaverton"
,100.00,,,,"Laundry Facilities, Property Manager on Site, Laundry Service, Storage Space, Maintenance on site, Sundeck, Dining Room, Vinyl Flooring, Window Coverings",2.18,1743,800,C,,Beaverton,1.26,"Laundry Facilities, Property Manager on Site, Laundry Service, Storage Space, Maintenance on site, Sundeck, Dining Room, Vinyl Flooring, Window Coverings",,1.54,45.4750982,,-122.8044491,0,2,49,,0.87,Not Disclosed,63170,,Low-Rise,Vose,,800,1965,,97008,NS
86.96,13.04,,,,"Laundry Facilities, Storage Space, Deck, Vinyl Flooring, Window Coverings",,,783,C,,Portland,1.28,"Laundry Facilities, Storage Space, Deck, Vinyl Flooring, Window Coverings",,1.4704,45.4505023,,-122.7667312,0,2,23,750,0.79,Not Disclosed,25130,,Garden,Metzger,,1000,1967,,97223-6793,N/Av
56.07,43.93,,,,"24 Hour Access, Laundry Facilities, Pool, Property Manager on Site, Renters Insurance Program, Hearing Impaired Accessible, Maintenance on site, Online Services, Deck, Patio",1.75,1276,728,C,,Tigard,1.44,"24 Hour Access, Laundry Facilities, Pool, Property Manager on Site, Renters Insurance Program, Hearing Impaired Accessible, Maintenance on site, Online Services, Deck, Patio",,3.1656,45.4487910,,-122.7651730,0,2,107,640,1.49,Not Disclosed,80530,,Garden,Metzger,,840,1969,,97223-6761,TO:R24-40
66.67,33.33,,,,"Laundry Facilities, Picnic Area",1.76,1146,650,C,,Tigard,0.52,"Laundry Facilities, Picnic Area",,0.63,45.4309430,,-122.7650720,0,2,24,600,1.00,Not Disclosed,15600,,Garden,Downtown Tigard,,750,1963,,97223-6249,"CBD, Washington"
32.50,67.50,,,,"Laundry Facilities, Picnic Area, Property Manager on Site, Grill, Yard, Grill, Deck, Pantry, Vinyl Flooring",1.45,1231,851,C,,Tigard,1.2,"Laundry Facilities, Picnic Area, Property Manager on Site, Grill, Yard, Grill, Deck, Pantry, Vinyl Flooring",,1.69,45.4156041,,-122.7638946,0,2,40,750,1.88,Not Disclosed,33772,,Low-Rise,Downtown Tigard,,900,1969,,97224-8149,"R12, Tigard"
69.57,26.09,4.35,,,"Laundry Facilities, Recycling, Storage Space, Bicycle Storage, Deck, Dining Room, Pantry, Smoke Free",1.47,1135,770,C,,Portland,0.43,"Laundry Facilities, Recycling, Storage Space, Bicycle Storage, Deck, Dining Room, Pantry, Smoke Free",,0.4408,45.5123236,,-122.6912075,0,2,23,700,3.05,Not Disclosed,17700,,Low-Rise,Southwest Hills,1100,900,1969,,97201,R1
27.12,72.88,,,,"Controlled Access, Clubhouse, Fitness Center, Laundry Facilities, Picnic Area, Grill, Media Center/Movie Theatre, Renters Insurance Program, Multi Use Room, Deck, Patio, Smoke Free",1.51,1369,904,B,,Portland,0.26,"Controlled Access, Clubhouse, Fitness Center, Laundry Facilities, Picnic Area, Grill, Media Center/Movie Theatre, Renters Insurance Program, Multi Use Room, Deck, Patio, Smoke Free",,1.58,45.5342100,,-122.6188220,2,8,118,745,0.80,Not Disclosed,134328,,Mid-Rise,Hollywood,,964,1963,,97213-1567,"RH, Portland"
52.08,45.83,2.08,,,"Laundry Facilities, Playground, Property Manager on Site, Laundry Service, Online Services, Double Pane Windows",1.77,1196,674,C,,Portland,0.8,"Laundry Facilities, Playground, Property Manager on Site, Laundry Service, Online Services, Double Pane Windows",,1.5014,45.5325330,,-122.5526960,0,2,48,570,1.71,Not Disclosed,33853,,Garden,Gateway,1548,753,1960,,97220-3967,N/Av
,100.00,,,,,,,949,C,,Portland,6.25,,,1.29,45.5343770,,-122.5454200,0,2,32,,2.00,Not Disclosed,29982,,Garden,Parkrose Heights,,949,1968,,97220,R2
100.00,,,,,"Laundry Facilities, Storage Space",0.92,613,670,C,,Portland,0.97,"Laundry Facilities, Storage Space",,2.522,45.5324980,,-122.5344210,0,2,77,670,1.91,Not Disclosed,52296,,Garden,Gateway,,,1967,,97230-1932,"R3, Portland"
18.18,63.64,18.18,,,"Air Conditioning, Courtyard, Property Manager on Site, Smoke Free",1.02,1118,1100,C,,Portland,0.75,"Air Conditioning, Courtyard, Property Manager on Site, Smoke Free",,2.07,45.5369540,,-122.5567730,0,2,44,1000,2.05,Not Disclosed,45732,,Garden,Parkrose Heights,1200,1100,1967,,97220,R2
72.00,24.00,4.00,,,"Laundry Facilities, Elevator, Smoke Free",1.69,1035,612,C,,Milwaukie,9.83,"Laundry Facilities, Elevator, Smoke Free",,0.7238,45.4468309,,-122.6386155,0,5,50,497,1.04,Not Disclosed,50180,,Mid-Rise,Historic Milwaukie,1830,755,1967,,97222-7542,R1B
100.00,,,,,"Laundry Facilities, Property Manager on Site",2.00,1000,500,C,,Portland,9.99,"Laundry Facilities, Property Manager on Site",,1,45.4461430,,-122.6325860,0,2,41,500,1.01,Not Disclosed,34488,,Low-Rise,Historic Milwaukie,,,1967,,97222,R2
62.96,25.93,11.11,,,"Property Manager on Site, Storage Space, Sundeck, Dining Room, Vinyl Flooring, Window Coverings",1.22,1117,918,C,,Milwaukie,14.87,"Property Manager on Site, Storage Space, Sundeck, Dining Room, Vinyl Flooring, Window Coverings",,1.13,45.4462193,,-122.6266593,0,2,27,735,,Not Disclosed,24000,,Low-Rise,Ardenwald,1300,1200,1960,,97222,R3
65.41,25.41,9.19,,,"Air Conditioning, Business Center, Fitness Center, Laundry Facilities, Pool, Property Manager on Site, Sauna, Spa, Package Service, Elevator, Lounge, Maintenance on site, Sundeck",2.53,2053,810,B,,Portland,0.07,"Air Conditioning, Business Center, Fitness Center, Laundry Facilities, Pool, Property Manager on Site, Sauna, Spa, Package Service, Elevator, Lounge, Maintenance on site, Sundeck",,1.07,45.5097260,,-122.6793090,5,24,185,647,1.23,Not Disclosed,180528,,Hi-Rise,Waterfront,1463,995,1965,2007,97201,RX
100.00,,,,,Laundry Facilities,1.54,768,500,C,,Portland,0.46,Laundry Facilities,,0.46,45.5133750,,-122.6922020,0,2,29,500,0.28,Not Disclosed,19194,,Low-Rise,Southwest Hills,,,1961,,97201-2584,"R1S, Portland"
41.67,50.00,,,8.33,,1.34,1075,801,C,,Portland,15.48,,,2.3957,45.4511186,,-122.6288331,0,2,60,684,,Not Disclosed,73488,495,Garden,Ardenwald,,949,1965,,97222-6564,R3
,100.00,,,,Property Manager on Site,,,775,C,,Portland,7.81,Property Manager on Site,,0.59,45.5123500,,-122.6376700,0,2,28,,,Not Disclosed,29932,,Low-Rise,Buckman,,775,1960,,97214,R1
20.00,20.00,20.00,0.2,20.00,,0.79,825,1040,C,,Vancouver,14.54,,1404,3.47,45.6691850,,-122.6677710,0,2,75,782,1.34,Not Disclosed,59814,572,Garden,West Hazel Dell,1344,1099,1968,,98665,R-
60.00,23.33,6.67,,10.00,Laundry Facilities,1.40,924,662,C,,Molalla,,Laundry Facilities,,1.74,45.1507350,,-122.5725000,0,2,30,625,1.14,Not Disclosed,21141,383,Low-Rise,Outlying Clackamas County,1184,728,1965,,97038,R3
,60.42,39.58,,,"Laundry Facilities, Walking/Biking Trails, Storage Space, Deck, Dining Room, Pantry, Patio, Window Coverings, Public Transportation",1.83,1809,990,C,,Beaverton,0.92,"Laundry Facilities, Walking/Biking Trails, Storage Space, Deck, Dining Room, Pantry, Patio, Window Coverings, Public Transportation",,1.71,45.4977392,,-122.8532448,0,3,48,,0.00,Not Disclosed,46800,,Low-Rise,Cooper Mountain-Aloha North,1050,950,1969,,97006-5064,"R15, Aloha"
34.21,65.79,,,,Laundry Facilities,1.26,1017,806,C,,Oregon City,19.96,Laundry Facilities,,1.1022,45.3426952,,-122.5943987,0,2,38,575,1.87,Not Disclosed,32030,,Low-Rise,Barclay Hills,,926,1969,,97045,R2
50.00,50.00,,,,,,,949,C,,Oregon City,19.98,,,1.52,45.3429000,,-122.5987999,0,2,32,778,0.73,Not Disclosed,30208,,Garden,Barclay Hills,,1120,1968,,97045-3729,R2
40.91,40.91,18.18,,,"Laundry Facilities, Tennis Court",1.50,1188,793,C,,Portland,4.51,"Laundry Facilities, Tennis Court",,0.915,45.4655680,,-122.7077850,0,2,22,600,1.50,Not Disclosed,18317,,Low-Rise,Multnomah,1100,850,1967,,97219-3785,"R2, Portland"
3.57,73.21,,0.19640000000000002,3.57,Laundry Facilities,1.65,1907,1126,C,,Tigard,0.99,Laundry Facilities,2165,2.21,45.4267384,,-122.7543266,0,2,52,440,1.51,Not Disclosed,46370,,Garden,Downtown Tigard,,900,1969,,97223-8222,"C-P, Tigard"
9.52,71.43,19.05,,,,1.13,965,857,C,,Beaverton,1.21,,,1.4,45.4696330,,-122.7934410,0,1,21,625,1.10,Not Disclosed,17161,,Garden,Vose,1000,850,1960,,97008-5302,"R7, Beaverton"
24.00,76.00,,,,"Laundry Facilities, Yard, Patio",1.30,1377,1061,C,,Portland,5.16,"Laundry Facilities, Yard, Patio",,1.4578,45.4798138,,-122.7080022,0,2,25,715,1.52,Not Disclosed,25852,,Garden,Hayhurst,,1170,1968,,97239-1083,"R1, Portland"
,89.66,6.90,,3.45,"Laundry Facilities, Vinyl Flooring",1.59,1188,748,C,,Beaverton,1.16,"Laundry Facilities, Vinyl Flooring",,1.02,45.4749930,,-122.7987820,0,2,29,,,Not Disclosed,35912,500,Garden,Vose,850,750,1967,,97008,R1
10.00,90.00,,,,"Laundry Facilities, Walking/Biking Trails, Bicycle Storage, Wet Bar",1.25,905,724,C,,Portland,11.46,"Laundry Facilities, Walking/Biking Trails, Bicycle Storage, Wet Bar",,0.92,45.5908680,,-122.7572820,0,2,20,607,1.08,Not Disclosed,15240,,Low-Rise,Cathedral Park,,737,1968,,97203,CS
100.00,,,,,"Laundry Facilities, Smoke Free",1.19,891,750,C,,Hillsboro,0.36,"Laundry Facilities, Smoke Free",,0.3558,45.5249430,,-122.9886053,0,2,20,750,,Not Disclosed,29750,,Low-Rise,Downtown Hillsboro,,,1969,,97124-3190,N/Av
31.94,68.06,,,,"Courtyard, Laundry Facilities, Property Manager on Site, Yard, Maintenance on site, Patio",1.77,1589,895,C,,Beaverton,1.76,"Courtyard, Laundry Facilities, Property Manager on Site, Yard, Maintenance on site, Patio",,2.22,45.4841505,,-122.7750078,0,2,71,636,,Not Disclosed,55231,,Garden,Raleigh West,,1016,1962,,97005-3558,R1
58.33,41.67,,,,"Laundry Facilities, Pool",2.48,1489,599,C,,Beaverton,0.87,"Laundry Facilities, Pool",,2.04,45.5016680,,-122.8165400,0,2,72,542,1.05,Not Disclosed,61350,,Low-Rise,Cedar Hills,,682,1964,,97005-1138,R-24
20.51,53.85,25.64,,,"Courtyard, Laundry Facilities, Playground, Property Manager on Site, Laundry Service, Patio",1.99,1736,872,C,,Tigard,0.46,"Courtyard, Laundry Facilities, Playground, Property Manager on Site, Laundry Service, Patio",,2.72,45.4296410,,-122.7768290,0,2,39,650,2.11,Not Disclosed,39015,,Garden,Downtown Tigard,1050,871,1964,,97223-5248,"R12, Tigard"
,100.00,,,,"Laundry Facilities, Lawn, Patio",1.73,1554,900,C,,Vancouver,8.39,"Laundry Facilities, Lawn, Patio",,1.3599,45.6279778,,-122.6035896,0,2,29,,2.52,Not Disclosed,26100,,Garden,Northcrest,,900,1966,,98661,"MD R18, Vancouver"
54.55,27.27,,,18.18,"Air Conditioning, Fitness Center, Laundry Facilities, Property Manager on Site, Gated, Pet Play Area, Trash Pickup - Door to Door, Elevator, Online Services, Deck, Intercom, Patio",1.85,1515,818,C,,Portland,0.13,"Air Conditioning, Fitness Center, Laundry Facilities, Property Manager on Site, Gated, Pet Play Area, Trash Pickup - Door to Door, Elevator, Online Services, Deck, Intercom, Patio",,0.5051,45.5287530,,-122.6975530,0,5,55,727,,Not Disclosed,57706,570,Mid-Rise,Uptown Portland,,1167,1967,,97210-3058,RH
100.00,,,,,"Laundry Facilities, Yard, Smoke Free",1.74,902,520,C,,Portland,4.13,"Laundry Facilities, Yard, Smoke Free",,1.26,45.5630480,,-122.6163910,0,2,24,520,0.91,Not Disclosed,13440,,Low-Rise,Cully,,,1969,,97218-1956,"R2H, Portland"
38.46,61.54,,,,"Laundry Facilities, Property Manager on Site, Storage Space, Smoke Free",1.53,1337,871,C,,Portland,14.39,"Laundry Facilities, Property Manager on Site, Storage Space, Smoke Free",,1.3,45.4486630,,-122.6196640,0,1,26,750,1.17,Not Disclosed,30038,,Garden,Lewelling,,947,1960,,97222,R-3
,100.00,,,,,1.12,986,880,C,,Milwaukie,13.57,,,1.56,45.4470171,,-122.6020093,0,2,30,,,Not Disclosed,48100,,Garden,Linwood,,880,1968,,97222-2698,R10
54.55,36.36,,,9.09,"Laundry Facilities, Pool, Property Manager on Site, Sundeck, Public Transportation",1.86,1213,653,C,,Milwaukie,0.89,"Laundry Facilities, Pool, Property Manager on Site, Sundeck, Public Transportation",,3.2643,45.4480484,,-122.5822331,0,2,88,540,,Not Disclosed,76002,260,Garden,Southgate,,920,1968,,97222-3902,HDR
56.32,9.47,,,34.21,"24 Hour Access, Air Conditioning, Business Center, Controlled Access, Courtyard, Fitness Center, Laundry Facilities, Picnic Area, Property Manager on Site, Dry Cleaning Service, Grill, Laundry Service, Package Service, Roof Terrace, Elevator, Sundeck, Smoke Free, Window Coverings",2.49,1418,569,B,,Portland,0.3,"24 Hour Access, Air Conditioning, Business Center, Controlled Access, Courtyard, Fitness Center, Laundry Facilities, Picnic Area, Property Manager on Site, Dry Cleaning Service, Grill, Laundry Service, Package Service, Roof Terrace, Elevator, Sundeck, Smoke Free, Window Coverings",,0.9183,45.5219268,,-122.6958153,3,12,190,500,0.86,Not Disclosed,132712,372,Mid-Rise,Goose Hollow,,1694,1950,,97205,"RH, Portland"
40.00,46.15,12.31,,1.54,"Laundry Facilities, Picnic Area, Playground",1.48,1204,814,C,,Beaverton,1.37,"Laundry Facilities, Picnic Area, Playground",,2.563,45.4759770,,-122.7935200,0,2,65,720,1.09,Not Disclosed,64000,400,Garden,Vose,890,890,1969,,97008-5373,"MFR5, Beaverton"
46.98,53.02,,,,"Laundry Facilities, Gameroom, Deck, Dining Room, Pantry, Patio, Recreation Room",1.60,1397,874,B,,Milwaukie,16.14,"Laundry Facilities, Gameroom, Deck, Dining Room, Pantry, Patio, Recreation Room",,15.3852,45.4374120,,-122.6328180,0,2,149,761,1.33,Not Disclosed,135000,,Garden,Lake Road,,974,1969,,97222,R2
45.95,27.03,,,27.03,"Online Services, Smoke Free",1.82,1174,646,C,,Portland,0.41,"Online Services, Smoke Free",,0.5739,45.4954170,,-122.6741570,0,2,37,700,,Not Disclosed,27750,350,Low-Rise,South Portland,,850,1963,,97239,RHS
38.10,19.05,38.10,0.023799999999999998,2.38,"Laundry Facilities, Patio, Public Transportation",0.87,871,1003,C,,Vancouver,10.87,"Laundry Facilities, Patio, Public Transportation",1500,1.97,45.6362170,,-122.6366070,0,2,42,760,1.42,Not Disclosed,42110,450,Low-Rise,Harney Heights,1300,900,1967,,98661,"R22, Vancouver"
26.47,58.82,14.71,,,"Air Conditioning, Clubhouse, Courtyard, Fitness Center, Laundry Facilities, Property Manager on Site, Sauna, Multi Use Room, Online Services, Sundeck, Dining Room, Patio",1.45,1305,899,C,,Portland,2.31,"Air Conditioning, Clubhouse, Courtyard, Fitness Center, Laundry Facilities, Property Manager on Site, Sauna, Multi Use Room, Online Services, Sundeck, Dining Room, Patio",,2.65,45.4848260,,-122.7604380,0,2,68,713,,Not Disclosed,85980,,Garden,Raleigh Hills,1129,925,1968,,97225-1829,N/Av
9.09,90.91,,,,"24 Hour Access, Air Conditioning, Controlled Access, Courtyard, Laundry Facilities, Playground, Property Manager on Site, Tenant Controlled HVAC, Renters Insurance Program, Yard, Hearing Impaired Accessible, Maintenance on site, Online Services, Vision Impaired Accessible, Grill, Handrails, Smoke Free, Trash Compactor, Vinyl Flooring, Warming Drawer, Wheelchair Accessible (Rooms), Window Coverings, Individual Locking Bedrooms, Private Bathroom",1.12,1046,911,C,,Fairview,9.61,"24 Hour Access, Air Conditioning, Controlled Access, Courtyard, Laundry Facilities, Playground, Property Manager on Site, Tenant Controlled HVAC, Renters Insurance Program, Yard, Hearing Impaired Accessible, Maintenance on site, Online Services, Vision Impaired Accessible, Grill, Handrails, Smoke Free, Trash Compactor, Vinyl Flooring, Warming Drawer, Wheelchair Accessible (Rooms), Window Coverings, Individual Locking Bedrooms, Private Bathroom",,1.27,45.5355450,,-122.4357530,0,2,21,522,1.35,Not Disclosed,20736,,Low-Rise,Outlying Troutdale/Gresham,,950,1969,,97024-3885,N/Av
38.46,61.54,,,,"Air Conditioning, Laundry Facilities, Gameroom",1.53,1512,990,C,,Portland,8.19,"Air Conditioning, Laundry Facilities, Gameroom",,2.27,45.4591490,,-122.6592470,0,2,52,887,0.19,Not Disclosed,52243,,Garden,Sellwood-Moreland,,1055,1961,,97202-7024,N/Av
20.00,80.00,,,,Laundry Facilities,1.71,1316,767,C,,Portland,11.41,Laundry Facilities,,0.57,45.5935100,,-122.7583720,0,2,25,666,1.39,Not Disclosed,18020,,Low-Rise,St Johns,,793,1969,,97203,"R1, Portland"
31.11,51.11,17.78,,,"Laundry Facilities, Freezer",1.29,1243,965,C,,Beaverton,1.12,"Laundry Facilities, Freezer",,2.05,45.4753650,,-122.7991130,0,2,45,736,1.57,Not Disclosed,42450,,Low-Rise,Vose,1332,977,1967,,97008,"R1, Beaverton"
55.56,38.89,5.56,,,"Laundry Facilities, Property Manager on Site, Online Services, Dining Room, Double Pane Windows",1.15,975,851,C,,Vancouver,13.31,"Laundry Facilities, Property Manager on Site, Online Services, Dining Room, Double Pane Windows",,1.4,45.6519600,,-122.6666600,0,2,36,728,0.95,Not Disclosed,36582,,Garden,Lincoln,1213,974,1969,,98663,MG
1.19,97.62,1.19,,,"Air Conditioning, Clubhouse, Courtyard, Maintenance on site",1.80,1451,805,C,,Portland,11.67,"Air Conditioning, Clubhouse, Courtyard, Maintenance on site",,1.0265,45.4912300,,-122.6264930,0,2,81,,1.37,Not Disclosed,67134,,Garden,Creston-Kenilworth,,806,1960,,97202-3287,R25
,,,,,,,,495,C,,Portland,17.59,,,0.6314,45.4186550,,-122.6297320,0,2,20,,0.87,Not Disclosed,34350,,Garden,Milwaukie Heights,,,1969,,97267,MR1
100.00,,,,,Laundry Facilities,2.08,1148,552,C,,Portland,0.28,Laundry Facilities,,0.309917,45.5306360,,-122.7041100,0,2,25,552,,Not Disclosed,15632,,Low-Rise,Uptown Portland,,,1960,,97210,R1
100.00,,,,,"Courtyard, Laundry Facilities, Walking/Biking Trails, Online Services, Double Pane Windows, Smoke Free",2.09,1432,684,C,,Portland,6.46,"Courtyard, Laundry Facilities, Walking/Biking Trails, Online Services, Double Pane Windows, Smoke Free",,0.4582,45.5527670,,-122.6511890,0,1,20,684,,Not Disclosed,13364,,Low-Rise,Sabin,,,1950,,97211,N/Av
29.03,70.97,,,,"24 Hour Access, Air Conditioning, Clubhouse, Courtyard, Picnic Area, Pool, Property Manager on Site, Freezer",1.55,1196,771,C,,Tigard,1.62,"24 Hour Access, Air Conditioning, Clubhouse, Courtyard, Picnic Area, Pool, Property Manager on Site, Freezer",,2.61,45.4180510,,-122.7847820,0,2,62,700,1.26,Not Disclosed,47800,,Low-Rise,Bull Mountain,,800,1968,,97224,
61.11,38.89,,,,Laundry Facilities,1.00,849,847,C,,Tigard,0.54,Laundry Facilities,,1.81,45.4270110,,-122.7758180,0,2,36,750,1.63,Not Disclosed,30500,,Garden,Downtown Tigard,,1000,1968,2014,97223-6114,N/Av
44.23,34.62,1.92,,19.23,"Laundry Facilities, Smoke Free",2.07,1479,714,C,,Lake Oswego,6.9,"Laundry Facilities, Smoke Free",,4.86,45.4105460,,-122.6656420,2,3,52,644,0.43,Not Disclosed,91839,475,Low-Rise,Lakewood,1239,906,1964,,97034-4845,R-0
,66.67,33.33,,,"Fenced Lot, Playground, Gated, Smoke Free, Wheelchair Accessible (Rooms)",1.39,1451,1041,C,,Beaverton,1.64,"Fenced Lot, Playground, Gated, Smoke Free, Wheelchair Accessible (Rooms)",,1.55,45.4762830,,-122.8166700,0,2,30,,1.07,Not Disclosed,37298,,Garden,Highland Beaverton,1166,978,1960,,97008,R2
,100.00,,,,"Air Conditioning, Laundry Facilities",1.16,1277,1100,C,,Newberg,32.19,"Air Conditioning, Laundry Facilities",,1.2554,45.3088870,,-122.9702580,0,2,24,,1.14,Not Disclosed,26320,,Garden,Yamhill County,,1100,1960,,97132,R4
,,,,100.00,,1.39,832,600,C,,Vancouver,10.06,,,0.55,45.6277136,,-122.6449734,0,2,23,,1.23,Not Disclosed,14586,600,Low-Rise,Hudson's Bay,,,1965,,98661-4353,N/Av
88.64,,,,11.36,"Laundry Facilities, Picnic Area, Spa",1.82,819,450,C,,Vancouver,10.06,"Laundry Facilities, Picnic Area, Spa",,1.14,45.6277340,,-122.6444540,0,2,44,450,1.05,Not Disclosed,32628,450,Low-Rise,Hudson's Bay,,,1966,,98661-4355,"R-18, Vancouver"
,99.06,0.94,,,"Courtyard, Laundry Facilities, Playground, Pool, Property Manager on Site, Laundry Service, Vinyl Flooring",1.49,1454,972,B,,Vancouver,7.29,"Courtyard, Laundry Facilities, Playground, Pool, Property Manager on Site, Laundry Service, Vinyl Flooring",,5.28,45.6228440,,-122.5836520,0,2,106,,0.70,Not Disclosed,99958,,Garden,Vancouver Heights,1500,967,1967,,98664-2569,N/Av
66.67,33.33,,,,"Laundry Facilities, Property Manager on Site, Dining Room, Lawn, Patio, Window Coverings",2.05,1382,673,C,,Portland,8.65,"Laundry Facilities, Property Manager on Site, Dining Room, Lawn, Patio, Window Coverings",,2.6492,45.4667340,,-122.6419240,0,2,48,600,1.08,Not Disclosed,33072,,Low-Rise,Sellwood-Moreland,,820,1961,,97202,"R2, Portland"
,100.00,,,,"24 Hour Access, Laundry Facilities, Pool, Property Manager on Site, Tenant Controlled HVAC, Online Services, Public Transportation",1.58,1263,800,C,,Milwaukie,0.94,"24 Hour Access, Laundry Facilities, Pool, Property Manager on Site, Tenant Controlled HVAC, Online Services, Public Transportation",,1.2371,45.4442110,,-122.5813350,0,2,20,,1.30,Not Disclosed,27000,,Low-Rise,Southgate,,800,1963,,97222,HDR
,,,,,,,,,C,,Portland,7.05,,,1.1506,45.5170590,,-122.6197440,0,2,32,,,Not Disclosed,32868,,Low-Rise,Sunnyside,,,1950,,97214,R2.5
5.00,95.00,,,,Laundry Facilities,1.14,1087,950,C,,Portland,0.86,Laundry Facilities,,0.8724,45.5325270,,-122.4784770,0,2,20,950,1.17,Not Disclosed,17104,,Low-Rise,Wilkes East,,950,1967,,97230-6370,MDR24
60.87,39.13,,,,"24 Hour Access, Air Conditioning, Courtyard, Laundry Facilities, Maintenance on site, Online Services, Key Fob Entry",1.94,1293,668,C,,Portland,4.81,"24 Hour Access, Air Conditioning, Courtyard, Laundry Facilities, Maintenance on site, Online Services, Key Fob Entry",,1.11,45.4655100,,-122.6996400,0,2,46,590,1.04,Not Disclosed,42886,,Low-Rise,Multnomah,,790,1968,,97219-2855,R1
100.00,,,,,,1.49,1117,750,C,,Portland,4.39,,,0.265,45.4668440,,-122.7085690,0,2,22,750,2.21,Not Disclosed,8040,,Low-Rise,Multnomah,,,1966,,97219,N/Av
44.44,55.56,,,,"Air Conditioning, Fitness Center, Laundry Facilities, Pool, Property Manager on Site, Sauna, Spa, Maintenance on site, Multi Use Room, Deck, Patio, Wheelchair Accessible (Rooms)",2.02,1613,799,C,,Beaverton,0.79,"Air Conditioning, Fitness Center, Laundry Facilities, Pool, Property Manager on Site, Sauna, Spa, Maintenance on site, Multi Use Room, Deck, Patio, Wheelchair Accessible (Rooms)",,11.6111,45.4869187,,-122.8246165,0,2,216,605,,Not Disclosed,233472,,Garden,Central Beaverton,,955,1969,2012,97005,R2
25.00,37.50,37.50,,,"Laundry Facilities, Playground, Laundry Service, Online Services, Deck, Dining Room, Patio, Window Coverings",1.41,1289,913,C,,Beaverton,2.19,"Laundry Facilities, Playground, Laundry Service, Online Services, Deck, Dining Room, Patio, Window Coverings",,1.3177,45.4778947,,-122.8257621,0,3,32,800,1.33,Not Disclosed,26925,,Low-Rise,Central Beaverton,1000,900,1969,,97005-4301,R2
,61.29,38.71,,,"Laundry Facilities, Patio",1.58,1768,1117,C,,Vancouver,12.5,"Laundry Facilities, Patio",,4.64,45.6395725,,-122.6336708,0,2,62,,2.62,Not Disclosed,138908,,Garden,Fourth Plain Village,1249,1034,1969,,98661-5192,"R12, Vancouver"
72.73,27.27,,,,"Air Conditioning, Laundry Facilities, Vintage Building",2.30,1836,797,C,,Portland,7.74,"Air Conditioning, Laundry Facilities, Vintage Building",,0.4591,45.4653876,,-122.6606462,0,2,22,747,1.64,Not Disclosed,21286,,Low-Rise,Sellwood-Moreland,,933,1966,,97202-6441,R1
83.33,16.67,,,,Laundry Facilities,1.21,955,792,C,,Portland,0.97,Laundry Facilities,,1.62,45.4388100,,-122.7784640,0,2,36,750,1.07,Not Disclosed,32602,,Low-Rise,Downtown Tigard,,1000,1967,,97223-7601,m-fam
24.00,4.00,8.00,,64.00,Laundry Facilities,1.78,1010,567,B,,Lake Oswego,6.85,Laundry Facilities,,0.6548,45.4151396,,-122.6641420,0,2,25,600,,Not Disclosed,14619,352,Low-Rise,Lakewood,1650,1650,1951,,97034,R-0
24.24,75.76,,,,Laundry Facilities,0.90,786,873,C,,Hillsboro,0.26,Laundry Facilities,,1.86,45.5188480,,-122.9688230,0,1,33,570,2.27,Not Disclosed,26855,,Garden,Downtown Hillsboro,,970,1964,,97123-4256,"SCR-HD, Hillsboro"
33.33,66.67,,,,Laundry Facilities,1.42,1004,707,C,,Hillsboro,0.44,Laundry Facilities,,1.86,45.5198435,,-122.9660792,0,1,36,600,1.81,Not Disclosed,25440,,Garden,Downtown Hillsboro,,760,1965,,97123,"CSRHD, Hillsboro"
,100.00,,,,Laundry Facilities,1.73,1609,927,C,,Lake Oswego,3.15,Laundry Facilities,,3.18,45.4102910,,-122.7234099,0,2,54,,,Not Disclosed,43952,,Garden,Walluga,,928,1969,,97035-3390,N/Av
31.91,58.51,8.51,,1.06,"Air Conditioning, Fitness Center, Laundry Facilities, Picnic Area, Property Manager on Site, Sauna, Spa, Grill, Laundry Service, Package Service, Storage Space, Maintenance on site, Sundeck, Dining Room, Vinyl Flooring, Window Coverings",2.01,1863,929,C,,Portland,2.94,"Air Conditioning, Fitness Center, Laundry Facilities, Picnic Area, Property Manager on Site, Sauna, Spa, Grill, Laundry Service, Package Service, Storage Space, Maintenance on site, Sundeck, Dining Room, Vinyl Flooring, Window Coverings",,10.5,45.4847640,,-122.7481480,0,2,188,757,1.04,Not Disclosed,172520,400,Garden,Raleigh Hills,1200,993,1968,2015,97225-1438,CC
33.33,63.33,3.33,,,"Laundry Facilities, Pet Play Area, Patio, Wheelchair Accessible (Rooms)",1.82,1345,740,C,,Portland,0.4,"Laundry Facilities, Pet Play Area, Patio, Wheelchair Accessible (Rooms)",,1.12,45.5278000,,-122.5571000,0,2,30,600,1.34,Not Disclosed,22400,,Low-Rise,Gateway,1000,800,1968,2014,97220,"R3, Portland"
43.94,56.06,,,,"24 Hour Access, Air Conditioning, Laundry Facilities, Maintenance on site, Online Services, Public Transportation",1.64,1332,811,C,,Portland,2.37,"24 Hour Access, Air Conditioning, Laundry Facilities, Maintenance on site, Online Services, Public Transportation",,2.34,45.4447080,,-122.7413903,0,2,66,620,1.58,Not Disclosed,55635,,Garden,Ashcreek,,960,1969,,97219-6741,"R2, Portland"
81.33,6.00,,,12.67,"Air Conditioning, Business Center, Controlled Access, Fitness Center, Laundry Facilities, Playground, Property Manager on Site, Package Service, Storage Space, Elevator, Maintenance on site, Sundeck, Window Coverings",2.65,1455,547,B,,Portland,0.24,"Air Conditioning, Business Center, Controlled Access, Fitness Center, Laundry Facilities, Playground, Property Manager on Site, Package Service, Storage Space, Elevator, Maintenance on site, Sundeck, Window Coverings",,0.65,45.5101140,,-122.6866030,2,11,150,544,0.57,Not Disclosed,121308,426,Mid-Rise,Arts District,,863,1951,,97201,"RX , Portland"
50.00,50.00,,,,Laundry Service,1.76,1234,703,C,,Portland,7.46,Laundry Service,,0.7392,45.5205630,,-122.6449980,0,2,20,679,1.31,Not Disclosed,15256,,Low-Rise,Buckman,,727,1950,,97214-1662,R25
,,,,,Window Coverings,,,,C,,Gresham,0.37,Window Coverings,,0.71,45.4974710,,-122.4193210,0,2,21,,1.35,Not Disclosed,22148,,Low-Rise,Mt Hood,,,1968,,97030-8008,DCL
100.00,,,,,"24 Hour Access, Courtyard, Laundry Facilities, Property Manager on Site, Patio, Public Transportation",1.50,1278,850,C,,Portland,9.31,"24 Hour Access, Courtyard, Laundry Facilities, Property Manager on Site, Patio, Public Transportation",,0.32,45.4976861,,-122.5875846,0,2,20,850,0.74,Not Disclosed,16150,,Low-Rise,South Tabor,,,1966,,97206-2460,N/Av
53.33,46.67,,,,Laundry Facilities,2.03,1361,670,C,,Portland,0.74,Laundry Facilities,,0.77,45.4976730,,-122.5797560,0,2,30,600,1.09,Not Disclosed,29260,,Low-Rise,South Tabor,,750,1969,,97206-2321,CG
31.82,68.18,,,,"Laundry Facilities, Property Manager on Site, Patio, Smoke Free",1.31,1139,869,C,,Portland,9.79,"Laundry Facilities, Property Manager on Site, Patio, Smoke Free",,0.99,45.4980163,,-122.5324392,0,2,22,750,1.27,Not Disclosed,18900,,Garden,Powellhurst-Gilbert,,925,1966,,97236-3463,"R2, Portland"
14.29,85.71,,,,"Laundry Facilities, Deck, Patio",,,1000,C,,Portland,9.92,"Laundry Facilities, Deck, Patio",,1.34,45.4979019,,-122.5289611,0,2,28,,2.18,Not Disclosed,23408,,Low-Rise,Powellhurst-Gilbert,,1000,1968,,97236,R2
,86.36,13.64,,,Laundry Facilities,1.42,1128,796,C,,Portland,9.28,Laundry Facilities,,1.4,45.4980065,,-122.5069214,0,2,22,,1.45,Not Disclosed,17640,,Low-Rise,Centennial,900,780,1966,,97236-2458,MR3
100.00,,,,,Laundry Facilities,2.04,1092,535,C,,Portland,3.72,Laundry Facilities,,0.717,45.5550020,,-122.5999510,0,2,21,535,1.33,Not Disclosed,13552,,Low-Rise,Cully,,,1968,,97218-2239,"R2H, Portland"
75.76,,,,24.24,24 Hour Access,1.64,656,400,C,,Portland,0.79,24 Hour Access,,2.24,45.5560260,,-122.5567190,0,2,66,416,2.12,Not Disclosed,28328,352,Garden,Parkrose,,,1967,,97220-3491,N/Av
,45.45,54.55,,,"Day Care, Laundry Facilities, Grill, Bicycle Storage, Dining Room",1.23,1292,1047,C,,Portland,0.75,"Day Care, Laundry Facilities, Grill, Bicycle Storage, Dining Room",,0.895,45.5558690,,-122.5561830,0,2,22,,1.77,Not Disclosed,25834,,Low-Rise,Parkrose,1187,878,1969,,97220-3450,"R2H, Portland"
1.89,1.89,,,96.23,Laundry Facilities,,,875,C,,Portland,0.91,Laundry Facilities,,1.612489,45.5558930,,-122.5534890,0,2,53,750,,Not Disclosed,43354,,Low-Rise,Parkrose,,1000,1969,,97220,R2H
45.10,3.92,29.41,,21.57,Laundry Facilities,1.26,1136,901,C,,Portland,0.94,Laundry Facilities,,2.07,45.5561430,,-122.5523270,0,2,51,750,1.04,Not Disclosed,76683,600,Low-Rise,Parkrose,1313,1200,1967,,97220,R2H
41.46,58.54,,,,Patio,1.54,1388,903,C,,Portland,3.04,Patio,,2.73,45.4887970,,-122.7472950,0,2,41,785,1.34,Not Disclosed,74466,,Garden,Raleigh Hills,,987,1958,,97225-1948,R24
45.00,55.00,,,,Laundry Facilities,0.89,671,758,C,,Vancouver,11.28,Laundry Facilities,,0.48,45.6247110,,-122.6544330,0,2,20,675,1.00,Not Disclosed,13218,,Low-Rise,Hudson's Bay,,825,1968,,98661-3810,"MG, Vancouver"
50.00,,,,50.00,"Air Conditioning, Laundry Facilities, Vinyl Flooring, Window Coverings",1.20,808,675,C,,Vancouver,10.59,"Air Conditioning, Laundry Facilities, Vinyl Flooring, Window Coverings",,0.58,45.6343830,,-122.6484370,0,2,20,750,1.17,Not Disclosed,18016,600,Low-Rise,Central Park,,,1965,,98661,UA
46.15,19.23,,,34.62,Laundry Facilities,1.49,1113,746,C,,Portland,11.27,Laundry Facilities,,0.61,45.4977820,,-122.6243100,0,2,26,750,,Not Disclosed,25058,600,Low-Rise,Richmond,,1000,1964,,97202,R1
70.00,30.00,,,,,1.23,695,565,C,,Newberg,32.03,,,0.5,45.2964334,,-122.9681792,0,2,20,550,1.05,Not Disclosed,11300,,Low-Rise,Yamhill County,,600,1963,,97132,R4
,100.00,,,,"Air Conditioning, Laundry Facilities, Playground, Property Manager on Site, Waterfront, Gameroom",1.32,1399,1060,C,,Milwaukie,16.55,"Air Conditioning, Laundry Facilities, Playground, Property Manager on Site, Waterfront, Gameroom",,1.86,45.4327706,,-122.6424692,0,3,37,,1.57,Not Disclosed,36129,,Low-Rise,Milwaukie Heights,,1061,1966,,97222,HDR
46.72,35.04,4.38,,13.87,"24 Hour Access, Clubhouse, Fitness Center, Laundry Facilities, Picnic Area, Waterfront, Grill, Laundry Service",2.28,1676,734,B,,Milwaukie,16.66,"24 Hour Access, Clubhouse, Fitness Center, Laundry Facilities, Picnic Area, Waterfront, Grill, Laundry Service",,6.68,45.4314280,,-122.6429040,0,3,137,685,1.69,Not Disclosed,100837,568,Garden,Milwaukie Heights,1048,827,1968,1981,97222,HDR
,100.00,,,,"Laundry Facilities, Property Manager on Site, Laundry Service, Maintenance on site, Double Pane Windows, Patio",1.51,1242,825,C,,Gladstone,17.88,"Laundry Facilities, Property Manager on Site, Laundry Service, Maintenance on site, Double Pane Windows, Patio",,5.18,45.3771240,,-122.6036310,0,1,75,,1.11,Not Disclosed,63000,,Garden,Gladstone,,825,1965,,97027-4219,N/Av
4.00,78.00,10.00,0.08,,"Air Conditioning, Laundry Facilities, Playground, Pool",1.37,1299,955,C,,Portland,16.52,"Air Conditioning, Laundry Facilities, Playground, Pool",1250,2.68008,45.4319571,,-122.6415145,0,2,50,,1.32,Not Disclosed,56604,,Garden,Milwaukie Heights,,916,1967,,97222-8071,R2
,,100.00,,,Patio,1.07,1389,1300,C,,Vancouver,12.39,Patio,,1.49,45.6399730,,-122.6318477,0,2,20,,1.20,Not Disclosed,25000,,Garden,Fourth Plain Village,1300,,1967,,98661-5727,"R-18, Vancouver"
10.00,90.00,,,,"Property Manager on Site, Storage Space, Deck, Patio",1.59,1528,960,C,,Vancouver,9.57,"Property Manager on Site, Storage Space, Deck, Patio",,1.24,45.6499150,,-122.5842670,0,2,40,780,0.76,Not Disclosed,59108,,Low-Rise,Oakbrook,,980,1965,,98662,R-
7.14,85.71,7.14,,,"Air Conditioning, Laundry Facilities, Laundry Service, Deck, Patio",1.42,1423,1003,C,,Milwaukie,17.69,"Air Conditioning, Laundry Facilities, Laundry Service, Deck, Patio",,2.79,45.4190690,,-122.6407950,0,3,56,680,1.89,Not Disclosed,56136,,Garden,Milwaukie Heights,1270,1008,1965,,97267-1266,MR-1
67.45,31.60,,,0.94,"24 Hour Access, Air Conditioning, Business Center, Controlled Access, Fitness Center, Property Manager on Site, Package Service, Storage Space, Elevator, Lounge, Maintenance on site, Sundeck, Dining Room, Vinyl Flooring, Window Coverings",2.31,1713,738,B,,Portland,0.48,"24 Hour Access, Air Conditioning, Business Center, Controlled Access, Fitness Center, Property Manager on Site, Package Service, Storage Space, Elevator, Lounge, Maintenance on site, Sundeck, Dining Room, Vinyl Flooring, Window Coverings",,0.84,45.5228020,,-122.6973170,4,24,212,647,1.51,Not Disclosed,158130,500,Hi-Rise,Goose Hollow,,956,1964,,97205,RH
100.00,,,,,Laundry Facilities,2.24,1279,570,C,,Portland,7.43,Laundry Facilities,,1.19,45.5140850,,-122.6191080,0,1,24,570,1.17,Not Disclosed,15080,,Garden,Sunnyside,,,1950,,97215-2476,"R25, Portland"
36.36,23.64,,,40.00,"Air Conditioning, Fitness Center, Laundry Facilities, Roof Terrace, Bicycle Storage, Elevator, Patio, Smoke Free, Wheelchair Accessible (Rooms)",2.29,1329,581,C,,Portland,0.19,"Air Conditioning, Fitness Center, Laundry Facilities, Roof Terrace, Bicycle Storage, Elevator, Patio, Smoke Free, Wheelchair Accessible (Rooms)",,0.365,45.5204206,,-122.6940208,0,8,55,639,0.55,Not Disclosed,55885,381,Mid-Rise,Goose Hollow,,830,1963,,97205,"RHd, Portland"
52.17,47.83,,,,,1.11,965,870,C,,Portland,11.08,,,1.0348,45.4875405,,-122.6071249,0,1,23,750,,Not Disclosed,20000,,Low-Rise,Woodstock,,1000,1962,,97206-4875,N/Av
43.95,36.94,12.74,,6.37,"Clubhouse, Courtyard, Fitness Center, Pool, Property Manager on Site",2.00,1562,780,C,,Portland,2.67,"Clubhouse, Courtyard, Fitness Center, Pool, Property Manager on Site",,,45.4828320,,-122.7550930,0,2,157,683,1.28,Not Disclosed,117120,510,Garden,Raleigh Hills,1123,825,1963,,97225-1675,
72.41,27.59,,,,"Courtyard, Laundry Facilities, Property Manager on Site, Laundry Service",2.00,1058,529,C,,Portland,2.61,"Courtyard, Laundry Facilities, Property Manager on Site, Laundry Service",,3.65,45.4829300,,-122.7565440,0,2,116,488,1.74,Not Disclosed,71820,,Garden,Raleigh Hills,,638,1964,,97225-1681,N/Av
24.24,66.67,9.09,,,"Air Conditioning, Laundry Facilities",1.15,1325,1147,C,,Portland,2.41,"Air Conditioning, Laundry Facilities",,1.56,45.4813530,,-122.7600150,0,2,33,1100,1.02,Not Disclosed,40190,,Low-Rise,Raleigh Hills,1200,1158,1959,,97225-1615,N/Av
54.55,40.91,4.55,,,"Laundry Facilities, Property Manager on Site",1.41,1043,738,C,,Beaverton,0.42,"Laundry Facilities, Property Manager on Site",,3.022567,45.4581500,,-122.7812840,0,2,88,640,,Not Disclosed,98444,,Garden,Denny Whitford,1150,822,1967,,97008-4051,N/Av
53.33,46.67,,,,Smoke Free,1.86,1409,757,C,,Portland,0.69,Smoke Free,,0.57,45.5360020,,-122.6473030,0,2,30,651,0.76,Not Disclosed,26202,,Low-Rise,Irvington,,880,1968,,97212,R1A
100.00,,,,,,,,659,C,,Portland,0.75,,,0.5155,45.5360065,,-122.6459327,0,2,22,659,0.65,Not Disclosed,22862,,Low-Rise,Irvington,,,1967,,97212,R1
58.21,35.82,5.97,,,"24 Hour Access, Air Conditioning, Laundry Facilities, Property Manager on Site, Grill, Maintenance on site, Freezer, Patio",1.30,1014,780,C,,Tigard,0.31,"24 Hour Access, Air Conditioning, Laundry Facilities, Property Manager on Site, Grill, Maintenance on site, Freezer, Patio",,1.56,45.4291420,,-122.7660270,0,2,67,612,,Not Disclosed,52900,,Garden,Downtown Tigard,1200,983,1968,,97223-6260,CBD
,100.00,,,,"Courtyard, Laundry Facilities, Property Manager on Site, Public Transportation",1.28,1155,900,C,,Beaverton,2.32,"Courtyard, Laundry Facilities, Property Manager on Site, Public Transportation",,2.05,45.4909613,,-122.8446329,0,2,44,,2.39,Not Disclosed,40860,,Garden,Cooper Mountain-Aloha North,,900,1960,,97007-2176,R-25+
21.62,75.68,,,2.70,"Laundry Facilities, Playground, Patio",1.21,919,758,C,,Saint Helens,34.24,"Laundry Facilities, Playground, Patio",,0.15,45.8607855,,-122.8241556,0,2,37,650,,Not Disclosed,24050,450,Garden,Columbia County,,800,1969,,97051-1161,
,100.00,,,,"Courtyard, Laundry Facilities, Picnic Area, Property Manager on Site, Online Services, Deck, Patio",1.36,1362,1000,C,,Beaverton,1.03,"Courtyard, Laundry Facilities, Picnic Area, Property Manager on Site, Online Services, Deck, Patio",,1.18,45.4831343,,-122.8184426,0,2,26,,1.12,Not Disclosed,26000,,Garden,Central Beaverton,,1000,1967,,97005-3778,N/Av
9.09,80.00,10.91,,,"Laundry Facilities, Property Manager on Site, Maintenance on site, Patio",1.45,1512,1039,C,,Beaverton,1.34,"Laundry Facilities, Property Manager on Site, Maintenance on site, Patio",,2.23,45.4822883,,-122.8185145,0,2,55,625,1.41,Not Disclosed,54665,,Garden,Central Beaverton,1325,1048,1968,,97005-3777,R1
49.15,50.85,,,,Laundry Facilities,0.99,675,681,C,,Beaverton,0.96,Laundry Facilities,,1.84,45.4843660,,-122.8188999,0,1,59,640,2.09,Not Disclosed,57392,,Garden,Central Beaverton,,720,1960,,97005,R1
25.00,45.45,4.55,,25.00,"Controlled Access, Fitness Center, Laundry Facilities, Picnic Area, Pool, Video Patrol, Basketball Court, Package Service, Racquetball Court, Recycling, Smoke Free, Elevator, Recreation Room, Public Transportation",1.86,1386,745,B,,Portland,4.92,"Controlled Access, Fitness Center, Laundry Facilities, Picnic Area, Pool, Video Patrol, Basketball Court, Package Service, Racquetball Court, Recycling, Smoke Free, Elevator, Recreation Room, Public Transportation",,0.81,45.4632556,,-122.7007955,0,4,44,594,1.40,Not Disclosed,46480,464,Mid-Rise,Multnomah,1068,951,1967,2017,97219-4019,"C2S, Portland"
86.27,,,,13.73,"Laundry Facilities, Elevator",1.35,986,729,C,,Portland,0.37,"Laundry Facilities, Elevator",,0.2296,45.5217700,,-122.6963990,0,5,51,750,,Not Disclosed,40800,600,Mid-Rise,Goose Hollow,,,1959,,97205-1333,"RH, Portland"
,100.00,,,,Laundry Facilities,1.87,1592,850,C,,Portland,0.55,Laundry Facilities,,0.68,45.5187078,,-122.5519855,0,2,20,,1.64,Not Disclosed,16416,,Low-Rise,Mill Park,,850,1966,,97216-3143,"R1, Portland"
45.00,55.00,,,,Laundry Facilities,1.27,1004,793,C,,Portland,0.88,Laundry Facilities,,0.6249,45.5188090,,-122.5251130,0,2,20,600,1.35,Not Disclosed,12904,,Low-Rise,Gateway,,950,1962,,97233-1870,"R3, Portland"
48.57,51.43,,,,"Laundry Facilities, Pet Play Area, Trash Pickup - Curbside, Garden, Patio",1.46,1017,698,C,,Portland,0.84,"Laundry Facilities, Pet Play Area, Trash Pickup - Curbside, Garden, Patio",,1.7097,45.5197128,,-122.5229928,0,2,35,550,,Not Disclosed,42620,,Garden,Gateway,,839,1965,,97233-1871,R2
14.29,80.95,4.76,,,"Courtyard, Playground",1.13,1053,936,C,,Portland,0.44,"Courtyard, Playground",,1.0337,45.5196669,,-122.5070611,0,2,21,600,,Not Disclosed,17999,,Low-Rise,Glenfair,1700,950,1967,,97233-2867,
25.00,75.00,,,,Laundry Facilities,1.37,1090,795,C,,Portland,0.43,Laundry Facilities,,1.094,45.5187868,,-122.5063230,0,2,20,640,1.40,Not Disclosed,16206,,Low-Rise,Centennial,,846,1969,,97233-2868,"R2, Portland"
29.79,59.57,10.64,,,"Courtyard, Laundry Facilities, Online Services, Dining Room, Patio",1.55,1203,777,C,,Portland,0.31,"Courtyard, Laundry Facilities, Online Services, Dining Room, Patio",,2.2,45.5195760,,-122.4982130,0,2,47,650,1.19,Not Disclosed,43796,,Garden,Glenfair,1000,800,1965,,97233-3553,CN2 and RHT
32.61,34.78,32.61,,,"Laundry Facilities, Property Manager on Site",1.60,1336,837,C,,Portland,7.77,"Laundry Facilities, Property Manager on Site",,1.0798,45.5148100,,-122.6410340,0,2,46,650,1.37,Not Disclosed,39560,,Low-Rise,Buckman,1050,813,1968,,97214-2858,"R5, Portland"
,,,,,"Playground, Property Manager on Site, Walking/Biking Trails, Zen Garden, Lawn",,,,C,,Portland,3.13,"Playground, Property Manager on Site, Walking/Biking Trails, Zen Garden, Lawn",,4.53,45.4770437,,-122.7495804,0,2,51,,1.79,Not Disclosed,41718,,Garden,Raleigh Hills,,,1969,,97223-7543,N/Av
15.38,76.92,7.69,,,"Courtyard, Laundry Facilities, Storage Space, Deck, Patio",1.25,1494,1222,C,,Portland,4.14,"Courtyard, Laundry Facilities, Storage Space, Deck, Patio",,1.7218,45.4768370,,-122.7239528,0,2,37,765,1.20,Not Disclosed,45000,,Low-Rise,Hayhurst,2100,1225,1961,,97219,"R1, Portland"
29.55,20.45,27.27,,22.73,"Laundry Facilities, Property Manager on Site, Maintenance on site, Patio",1.60,1200,749,C,,Gresham,0.6,"Laundry Facilities, Property Manager on Site, Maintenance on site, Patio",,2.604,45.4954440,,-122.4160850,0,2,44,590,1.30,Not Disclosed,32540,490,Garden,Mt Hood,1056,858,1967,,97080-1243,"LDR, Gresham"
42.81,41.37,,,15.83,"Air Conditioning, Fitness Center, Laundry Facilities, Tennis Court, Laundry Service, Vintage Building, Storage Space, House Sitter Services, Sundeck, Built-In Bookshelves, Smoke Free",2.56,1775,692,C,,Portland,0.4,"Air Conditioning, Fitness Center, Laundry Facilities, Tennis Court, Laundry Service, Vintage Building, Storage Space, House Sitter Services, Sundeck, Built-In Bookshelves, Smoke Free",,1.38,45.5209476,,-122.6976020,4,13,278,550,1.07,Not Disclosed,187642,396,Mid-Rise,Goose Hollow,,953,1951,,97205,RH
28.00,56.00,16.00,,,,1.58,1336,846,C,,Portland,1.35,,,1.0502,45.4940485,,-122.7778393,0,2,25,750,1.71,Not Disclosed,19208,,Low-Rise,Cedar Hills,1000,850,1964,,97225-2956,"R24, Washington County"
,100.00,,,,"Courtyard, Laundry Facilities, Vinyl Flooring",1.12,1217,1090,C,,Hillsboro,0.41,"Courtyard, Laundry Facilities, Vinyl Flooring",,1.22,45.5178656,,-122.9726192,0,1,22,,,Not Disclosed,24000,,Garden,Downtown Hillsboro,,1091,1957,,97123-4650,"SCRMD, Hillsboro"
37.14,52.86,10.00,,,"Laundry Facilities, Property Manager on Site, Maintenance on site, Smoke Free",1.43,1210,843,C,,Tigard,0.65,"Laundry Facilities, Property Manager on Site, Maintenance on site, Smoke Free",,2.88,45.4267620,,-122.7763570,0,2,70,740,1.36,Not Disclosed,59040,,Low-Rise,Downtown Tigard,1140,860,1968,,97223-5059,"R12, Tigard"
,,,,,,,,,C,,Portland,0.51,,,0.4591,45.5319470,,-122.6456170,0,2,20,,,Not Disclosed,18392,,Low-Rise,Sullivan's Gulch,,,1968,,97232-1525,N/Av
20.00,20.00,60.00,,,,1.56,1367,874,C,,Portland,0.67,,,0.3444,45.5318876,,-122.6422027,0,2,25,550,1.17,Not Disclosed,26750,,Low-Rise,Sullivan's Gulch,990,850,1969,,97232-1621,N/Av
,100.00,,,,,1.69,1253,740,C,,Portland,1.28,,,1.411,45.4508668,,-122.7655507,0,2,28,,1.50,Not Disclosed,26658,,Garden,Metzger,,740,1968,,97223-6780,R18-24
53.01,46.99,,,,"Controlled Access, Clubhouse, Fitness Center, Laundry Facilities, Property Manager on Site, Sauna, Gameroom, Laundry Service, Pet Play Area, Online Services, Deck, Patio",1.44,1216,844,B,,Tigard,0.58,"Controlled Access, Clubhouse, Fitness Center, Laundry Facilities, Property Manager on Site, Sauna, Gameroom, Laundry Service, Pet Play Area, Online Services, Deck, Patio",,2.69,45.4540985,,-122.7816257,0,2,83,750,1.28,Not Disclosed,70050,,Low-Rise,Metzger,,950,1969,,97223,"R-40, Tigard"
,81.82,18.18,,,"Courtyard, Laundry Facilities, Gated, Online Services, Smoke Free",1.92,1611,837,B,,Portland,11.66,"Courtyard, Laundry Facilities, Gated, Online Services, Smoke Free",,1.2628,45.4979520,,-122.6350340,0,2,44,,,Not Disclosed,48732,,Low-Rise,Richmond,1000,801,1956,,97202-2061,N/Av
23.53,52.94,23.53,,,"Property Manager on Site, Storage Space",1.28,1238,970,C,,Portland,0.71,"Property Manager on Site, Storage Space",,1.6,45.5348310,,-122.5547310,0,1,34,713,1.06,Not Disclosed,32368,,Garden,Parkrose Heights,1318,930,1960,,97220-3838,R3
46.15,41.03,,,12.82,"Clubhouse, Courtyard, Laundry Facilities, Property Manager on Site, Smoke Free",1.47,1108,752,C,,Portland,0.76,"Clubhouse, Courtyard, Laundry Facilities, Property Manager on Site, Smoke Free",,1.48,45.5344740,,-122.5525940,0,2,39,635,1.44,Not Disclosed,30736,415,Low-Rise,Parkrose Heights,,989,1961,,97220-3841,"R2, Portland"
,64.18,35.82,,,"Laundry Facilities, Picnic Area, Playground, Property Manager on Site, Laundry Service, Yard, Wheelchair Accessible (Rooms), Window Coverings",2.03,1826,897,C,,Beaverton,1.11,"Laundry Facilities, Picnic Area, Playground, Property Manager on Site, Laundry Service, Yard, Wheelchair Accessible (Rooms), Window Coverings",,3.5,45.4748700,,-122.8006000,0,1,67,,1.21,Not Disclosed,60250,,Garden,Vose,1000,840,1961,2018,97008,"R1, Beaverton"
33.33,66.67,,,,"Laundry Facilities, Laundry Service",1.69,1243,734,C,,West Linn,8.61,"Laundry Facilities, Laundry Service",,1.5421,45.3834574,,-122.6396138,0,1,24,578,1.65,Not Disclosed,15113,,Garden,Robinwood,,812,1968,,97068,R2.1
39.80,35.71,16.33,,8.16,"Laundry Facilities, Multi Use Room",1.27,898,707,C,,Portland,0.73,"Laundry Facilities, Multi Use Room",,3.46,45.5568940,,-122.5534640,0,2,98,600,1.50,Not Disclosed,87818,450,Garden,Parkrose,1000,750,1965,,97220,R2H
,100.00,,,,,1.14,1022,894,C,,Vancouver,10.22,,,1.5,45.6313720,,-122.6441330,0,2,24,,1.11,Not Disclosed,26946,,Low-Rise,Central Park,,894,1968,,98661,UA
100.00,,,,,,,,,C,,Portland,0.12,,,0.3,45.5227500,,-122.6782050,0,3,50,,,Not Disclosed,18000,,Low-Rise,Park Blocks,,,1950,,97086,C
100.00,,,,,,,,684,B,,Portland,0.11,,,1.1979,45.5214323,,-122.4955922,0,1,21,684,,Not Disclosed,16800,,Low-Rise,Rockwood,,,1963,,97233-3829,SC
3.13,65.63,31.25,,,"Air Conditioning, Courtyard, Laundry Facilities, Property Manager on Site, Deck, Garden",1.49,1540,1036,C,,Beaverton,1.19,"Air Conditioning, Courtyard, Laundry Facilities, Property Manager on Site, Deck, Garden",,1.6,45.4771073,,-122.7975311,0,2,32,950,,Not Disclosed,31206,,Low-Rise,Vose,1200,963,1969,,97005,R2
50.00,50.00,,,,Gated,,,774,C,,Beaverton,2.64,Gated,,1.84,45.5141802,,-122.8221818,0,2,20,640,,Not Disclosed,18680,,Garden,Cedar Hills-Cedar Mill,,907,1968,,97006-5947,
38.46,61.54,,,,"Laundry Facilities, Smoke Free",2.01,1351,673,C,,Portland,0.7,"Laundry Facilities, Smoke Free",,0.6282,45.5187416,,-122.5281902,0,1,26,550,1.97,Not Disclosed,18200,,Low-Rise,Gateway,,750,1964,,97233-1553,R3
